zip,lat,lng,city,timezone
20001,38.91002,-77.018,Washington,America/New_York
20002,38.90511,-76.98431,Washington,America/New_York
20003,38.88193,-76.99033,Washington,America/New_York
20004,38.89504,-77.02661,Washington,America/New_York
20005,38.90443,-77.0316,Washington,America/New_York
20006,38.89847,-77.04119,Washington,America/New_York
20007,38.91259,-77.07756,Washington,America/New_York
20008,38.93539,-77.05935,Washington,America/New_York
20009,38.91986,-77.03749,Washington,America/New_York
20010,38.93255,-77.03128,Washington,America/New_York
20011,38.95295,-77.02323,Washington,America/New_York
20012,38.97863,-77.03076,Washington,America/New_York
20015,38.96661,-77.05837,Washington,America/New_York
20016,38.93822,-77.09139,Washington,America/New_York
20017,38.93813,-76.99294,Washington,America/New_York
20018,38.92596,-76.97281,Washington,America/New_York
20019,38.89214,-76.94195,Washington,America/New_York
20020,38.86234,-76.97446,Washington,America/New_York
20024,38.87517,-77.0295,Washington,America/New_York
20032,38.83142,-77.01514,Washington,America/New_York
20036,38.90705,-77.04155,Washington,America/New_York
20037,38.89213,-77.0535,Washington,America/New_York
20045,38.89673,-77.0308,Washington,America/New_York
20052,38.89884,-77.04779,Washington,America/New_York
20057,38.90892,-77.07511,Washington,America/New_York
20059,38.92247,-77.02003,Washington,America/New_York
20064,38.93637,-76.99924,Washington,America/New_York
20105,38.95949,-77.60829,Aldie,America/New_York
20106,38.6871,-78.0133,Amissville,America/New_York
20109,38.79472,-77.53105,Manassas,America/New_York
20110,38.7464,-77.48699,Manassas,America/New_York
20111,38.74907,-77.43039,Manassas,America/New_York
20112,38.67274,-77.42901,Manassas,America/New_York
20115,38.82138,-77.89764,Marshall,America/New_York
20117,38.99473,-77.73851,Middleburg,America/New_York
20119,38.62159,-77.62819,Catlett,America/New_York
20120,38.85576,-77.47987,Centreville,America/New_York
20121,38.8175,-77.46015,Centreville,America/New_York
20124,38.78059,-77.39085,Clifton,America/New_York
20129,39.16673,-77.59404,Paeonian Springs,America/New_York
20130,39.02756,-77.94243,Paris,America/New_York
20132,39.16648,-77.72748,Purcellville,America/New_York
20135,39.08602,-77.87659,Bluemont,America/New_York
20136,38.7374,-77.55473,Bristow,America/New_York
20137,38.80682,-77.72992,Broad Run,America/New_York
20141,39.11675,-77.79159,Round Hill,America/New_York
20143,38.86421,-77.56792,Catharpin,America/New_York
20144,38.92117,-77.93759,Delaplane,America/New_York
20147,39.04151,-77.47958,Ashburn,America/New_York
20148,38.99062,-77.53284,Ashburn,America/New_York
20151,38.89583,-77.44453,Chantilly,America/New_York
20152,38.8998,-77.51917,Chantilly,America/New_York
20155,38.80646,-77.62145,Gainesville,America/New_York
20158,39.14126,-77.65514,Hamilton,America/New_York
20164,39.01244,-77.39586,Sterling,America/New_York
20165,39.05058,-77.38854,Sterling,America/New_York
20166,38.97146,-77.4637,Sterling,America/New_York
20169,38.87172,-77.64627,Haymarket,America/New_York
20170,38.98075,-77.38042,Herndon,America/New_York
20171,38.9246,-77.39824,Herndon,America/New_York
20175,39.0641,-77.59939,Leesburg,America/New_York
20176,39.18147,-77.5345,Leesburg,America/New_York
20180,39.26775,-77.63804,Lovettsville,America/New_York
20181,38.66687,-77.55374,Nokesville,America/New_York
20184,39.00143,-77.87874,Upperville,America/New_York
20186,38.69045,-77.843,Warrenton,America/New_York
20187,38.71846,-77.74275,Warrenton,America/New_York
20190,38.95968,-77.33806,Reston,America/New_York
20191,38.93438,-77.35184,Reston,America/New_York
20194,38.97998,-77.34354,Reston,America/New_York
20197,39.19379,-77.62252,Waterford,America/New_York
20198,38.87523,-77.76128,The Plains,America/New_York
20204,38.88556,-77.01443,Washington,America/New_York
20220,38.89713,-77.03436,Washington,America/New_York
20230,38.89373,-77.03567,Washington,America/New_York
20240,38.89446,-77.04261,Washington,America/New_York
20245,38.89358,-77.04503,Washington,America/New_York
20250,38.88556,-77.03276,Washington,America/New_York
20260,38.88355,-77.02504,Washington,America/New_York
20317,38.93645,-77.0128,Washington,America/New_York
20319,38.86706,-77.01695,Washington,America/New_York
20373,38.85779,-77.01051,Naval Anacost Annex,America/New_York
20388,38.8718,-76.99481,Washington Navy Yard,America/New_York
20390,38.87902,-76.99375,Washington,America/New_York
20408,38.89284,-77.02301,Washington,America/New_York
20415,38.89494,-77.0442,Washington,America/New_York
20418,38.8928,-77.04776,Washington,America/New_York
20422,38.92714,-77.0103,Washington,America/New_York
20427,38.90207,-77.04755,Washington,America/New_York
20431,38.89895,-77.04419,Washington,America/New_York
20510,38.89278,-77.00689,Washington,America/New_York
20515,38.88681,-77.00901,Washington,America/New_York
20520,38.8947,-77.04848,Washington,America/New_York
20530,38.89313,-77.02503,Washington,America/New_York
20535,38.89514,-77.02493,Washington,America/New_York
20540,38.88793,-77.00471,Washington,America/New_York
20542,38.94136,-77.02801,Washington,America/New_York
20551,38.8928,-77.0458,Washington,America/New_York
20560,38.8902,-77.02745,Washington,America/New_York
20565,38.89007,-77.01955,Washington,America/New_York
20566,38.89667,-77.05536,Washington,America/New_York
20591,38.88695,-77.02297,Washington,America/New_York
20601,38.61863,-76.85715,Waldorf,America/New_York
20602,38.58335,-76.89466,Waldorf,America/New_York
20603,38.62972,-76.97473,Waldorf,America/New_York
20606,38.25412,-76.73878,Abell,America/New_York
20607,38.67161,-77.02478,Accokeek,America/New_York
20608,38.58638,-76.70702,Aquasco,America/New_York
20609,38.27191,-76.74625,Avenue,America/New_York
20611,38.46251,-76.98538,Bel Alton,America/New_York
20612,38.50708,-76.67789,Benedict,America/New_York
20613,38.67179,-76.80576,Brandywine,America/New_York
20615,38.4204,-76.54772,Broomes Island,America/New_York
20616,38.65443,-77.08848,Bryans Road,America/New_York
20617,38.54351,-76.854,Bryantown,America/New_York
20618,38.28152,-76.78891,Bushwood,America/New_York
20619,38.2919,-76.52714,California,America/New_York
20620,38.23288,-76.52196,Callaway,America/New_York
20621,38.33062,-76.79438,Chaptico,America/New_York
20622,38.45281,-76.84504,Charlotte Hall,America/New_York
20623,38.7423,-76.83747,Cheltenham,America/New_York
20624,38.33523,-76.73451,Clements,America/New_York
20625,38.26212,-76.84877,Cobb Island,America/New_York
20626,38.23256,-76.76404,Coltons Point,America/New_York
20628,38.1459,-76.35027,Dameron,America/New_York
20629,38.33996,-76.45388,Dowell,America/New_York
20630,38.16653,-76.47087,Drayden,America/New_York
20632,38.42591,-76.95682,Faulkner,America/New_York
20634,38.24582,-76.49412,Great Mills,America/New_York
20636,38.35582,-76.57212,Hollywood,America/New_York
20637,38.52577,-76.77897,Hughesville,America/New_York
20639,38.60823,-76.6086,Huntingtown,America/New_York
20640,38.55408,-77.1657,Indian Head,America/New_York
20645,38.29838,-76.91413,Issue,America/New_York
20646,38.52114,-76.99989,La Plata,America/New_York
20650,38.27186,-76.63276,Leonardtown,America/New_York
20653,38.22795,-76.43139,Lexington Park,America/New_York
20656,38.33914,-76.6787,Loveville,America/New_York
20657,38.38358,-76.44537,Lusby,America/New_York
20658,38.56973,-77.15958,Marbury,America/New_York
20659,38.41886,-76.73238,Mechanicsville,America/New_York
20660,38.36928,-76.70741,Morganza,America/New_York
20661,38.26474,-76.84473,Mount Victoria,America/New_York
20662,38.43359,-77.19972,Nanjemoy,America/New_York
20664,38.35062,-76.91631,Newburg,America/New_York
20667,38.21782,-76.44537,Park Hall,America/New_York
20670,38.2824,-76.42031,Patuxent River,America/New_York
20674,38.13307,-76.50019,Piney Point,America/New_York
20675,38.58349,-77.01522,Pomfret,America/New_York
20676,38.4869,-76.54788,Port Republic,America/New_York
20677,38.49992,-77.04016,Port Tobacco,America/New_York
20678,38.52164,-76.60072,Prince Frederick,America/New_York
20680,38.11071,-76.37353,Ridge,America/New_York
20684,38.14308,-76.41027,Saint Inigoes,America/New_York
20685,38.43465,-76.52904,Saint Leonard,America/New_York
20686,38.18557,-76.43898,Saint Marys City,America/New_York
20687,38.07578,-76.34382,Scotland,America/New_York
20688,38.33475,-76.46965,Solomons,America/New_York
20689,38.66963,-76.58591,Sunderland,America/New_York
20690,38.15916,-76.52631,Tall Timbers,America/New_York
20692,38.18352,-76.50682,Valley Lee,America/New_York
20693,38.45924,-77.08931,Welcome,America/New_York
20695,38.58885,-76.97269,White Plains,America/New_York
20701,39.12877,-76.78803,Annapolis Junction,America/New_York
20705,39.04503,-76.90009,Beltsville,America/New_York
20706,38.96548,-76.85091,Lanham,America/New_York
20707,39.09563,-76.8842,Laurel,America/New_York
20708,39.04546,-76.83462,Laurel,America/New_York
20710,38.94204,-76.92623,Bladensburg,America/New_York
20711,38.80485,-76.65245,Lothian,America/New_York
20712,38.94306,-76.96517,Mount Rainier,America/New_York
20714,38.71813,-76.53987,North Beach,America/New_York
20715,38.98643,-76.73967,Bowie,America/New_York
20716,38.92734,-76.71494,Bowie,America/New_York
20720,38.9971,-76.78588,Bowie,America/New_York
20721,38.92106,-76.78881,Bowie,America/New_York
20722,38.9351,-76.94944,Brentwood,America/New_York
20723,39.13664,-76.86647,Laurel,America/New_York
20724,39.08028,-76.79054,Laurel,America/New_York
20732,38.65573,-76.54292,Chesapeake Beach,America/New_York
20733,38.80628,-76.53139,Churchton,America/New_York
20735,38.75034,-76.90566,Clinton,America/New_York
20736,38.6913,-76.62855,Owings,America/New_York
20737,38.96247,-76.91571,Riverdale,America/New_York
20740,39.00193,-76.93096,College Park,America/New_York
20742,38.99422,-76.94347,College Park,America/New_York
20743,38.88372,-76.89362,Capitol Heights,America/New_York
20744,38.75362,-76.98393,Fort Washington,America/New_York
20745,38.80552,-76.99495,Oxon Hill,America/New_York
20746,38.83664,-76.91936,Suitland,America/New_York
20747,38.85348,-76.88377,District Heights,America/New_York
20748,38.81692,-76.94124,Temple Hills,America/New_York
20751,38.79552,-76.56221,Deale,America/New_York
20754,38.736,-76.65493,Dunkirk,America/New_York
20755,39.09892,-76.74479,Fort George G Meade,America/New_York
20758,38.73399,-76.58961,Friendship,America/New_York
20759,39.15419,-76.92877,Fulton,America/New_York
20762,38.80748,-76.87457,Andrews Air Force Base,America/New_York
20763,39.13786,-76.82134,Savage,America/New_York
20764,38.83374,-76.51146,Shady Side,America/New_York
20765,38.84533,-76.54654,Galesville,America/New_York
20769,38.98818,-76.81635,Glenn Dale,America/New_York
20770,38.99981,-76.88567,Greenbelt,America/New_York
20771,39.00289,-76.85534,Greenbelt,America/New_York
20772,38.7785,-76.76911,Upper Marlboro,America/New_York
20774,38.87589,-76.76925,Upper Marlboro,America/New_York
20776,38.86913,-76.6067,Harwood,America/New_York
20777,39.17487,-76.96783,Highland,America/New_York
20778,38.83733,-76.56647,West River,America/New_York
20779,38.76388,-76.57665,Tracys Landing,America/New_York
20781,38.94229,-76.93655,Hyattsville,America/New_York
20782,38.96469,-76.9649,Hyattsville,America/New_York
20783,38.99988,-76.96886,Hyattsville,America/New_York
20784,38.95145,-76.89025,Hyattsville,America/New_York
20785,38.91849,-76.88237,Hyattsville,America/New_York
20794,39.15107,-76.78882,Jessup,America/New_York
20812,38.96677,-77.14357,Glen Echo,America/New_York
20814,39.00506,-77.10295,Bethesda,America/New_York
20815,38.98369,-77.07845,Chevy Chase,America/New_York
20816,38.95612,-77.11873,Bethesda,America/New_York
20817,38.99809,-77.14919,Bethesda,America/New_York
20818,38.97347,-77.16188,Cabin John,America/New_York
20832,39.15134,-77.07331,Olney,America/New_York
20833,39.20595,-77.05552,Brookeville,America/New_York
20837,39.11208,-77.40823,Poolesville,America/New_York
20838,39.22341,-77.37223,Barnesville,America/New_York
20839,39.17909,-77.41438,Beallsville,America/New_York
20841,39.1858,-77.32581,Boyds,America/New_York
20842,39.20831,-77.42473,Dickerson,America/New_York
20850,39.0908,-77.1809,Rockville,America/New_York
20851,39.07767,-77.12089,Rockville,America/New_York
20852,39.05134,-77.12507,Rockville,America/New_York
20853,39.10237,-77.09462,Rockville,America/New_York
20854,39.03413,-77.22149,Potomac,America/New_York
20855,39.13702,-77.13197,Derwood,America/New_York
20860,39.15072,-77.03069,Sandy Spring,America/New_York
20861,39.14653,-76.99886,Ashton,America/New_York
20862,39.18039,-77.01879,Brinklow,America/New_York
20866,39.10969,-76.93411,Burtonsville,America/New_York
20868,39.12534,-76.96834,Spencerville,America/New_York
20871,39.2592,-77.28187,Clarksburg,America/New_York
20872,39.29142,-77.21619,Damascus,America/New_York
20874,39.1291,-77.29721,Germantown,America/New_York
20876,39.20706,-77.23284,Germantown,America/New_York
20877,39.14068,-77.18865,Gaithersburg,America/New_York
20878,39.11376,-77.24781,Gaithersburg,America/New_York
20879,39.16992,-77.17416,Gaithersburg,America/New_York
20880,39.14077,-77.17456,Washington Grove,America/New_York
20882,39.23182,-77.14514,Gaithersburg,America/New_York
20886,39.17952,-77.197,Montgomery Village,America/New_York
20889,39.00193,-77.09038,Bethesda,America/New_York
20892,39.0006,-77.10373,Bethesda,America/New_York
20894,38.99591,-77.10221,Bethesda,America/New_York
20895,39.02696,-77.07781,Kensington,America/New_York
20896,39.03521,-77.09494,Garrett Park,America/New_York
20899,39.14442,-77.21621,Gaithersburg,America/New_York
20901,39.02155,-77.00919,Silver Spring,America/New_York
20902,39.04381,-77.0421,Silver Spring,America/New_York
20903,39.02128,-76.9821,Silver Spring,America/New_York
20904,39.06608,-76.97918,Silver Spring,America/New_York
20905,39.11052,-76.99036,Silver Spring,America/New_York
20906,39.08858,-77.05522,Silver Spring,America/New_York
20910,39.00227,-77.03634,Silver Spring,America/New_York
20912,38.98182,-77.00106,Takoma Park,America/New_York
21001,39.51077,-76.20274,Aberdeen,America/New_York
21005,39.44101,-76.16509,Aberdeen Proving Ground,America/New_York
21009,39.47032,-76.29378,Abingdon,America/New_York
21010,39.38953,-76.29851,Gunpowder,America/New_York
21012,39.04529,-76.49716,Arnold,America/New_York
21013,39.51123,-76.49124,Baldwin,America/New_York
21014,39.53606,-76.35164,Bel Air,America/New_York
21015,39.54691,-76.29619,Bel Air,America/New_York
21017,39.47498,-76.23667,Belcamp,America/New_York
21023,39.52368,-76.73984,Butler,America/New_York
21028,39.56832,-76.24162,Churchville,America/New_York
21029,39.20633,-76.95206,Clarksville,America/New_York
21030,39.49002,-76.6659,Cockeysville,America/New_York
21031,39.4874,-76.65792,Hunt Valley,America/New_York
21032,39.03376,-76.60401,Crownsville,America/New_York
21034,39.64905,-76.22261,Darlington,America/New_York
21035,38.93637,-76.63875,Davidsonville,America/New_York
21036,39.23416,-77.00223,Dayton,America/New_York
21037,38.91476,-76.54361,Edgewater,America/New_York
21040,39.42953,-76.28947,Edgewood,America/New_York
21042,39.27105,-76.8924,Ellicott City,America/New_York
21043,39.25759,-76.79773,Ellicott City,America/New_York
21044,39.21047,-76.88353,Columbia,America/New_York
21045,39.20622,-76.82747,Columbia,America/New_York
21046,39.17357,-76.84183,Columbia,America/New_York
21047,39.52818,-76.43781,Fallston,America/New_York
21048,39.49568,-76.91057,Finksburg,America/New_York
21050,39.58569,-76.39228,Forest Hill,America/New_York
21051,39.4721,-76.45388,Fork,America/New_York
21052,39.20238,-76.44379,Fort Howard,America/New_York
21053,39.69296,-76.71567,Freeland,America/New_York
21054,39.02624,-76.67083,Gambrills,America/New_York
21056,39.07805,-76.4338,Gibson Island,America/New_York
21057,39.45111,-76.50606,Glen Arm,America/New_York
21060,39.16893,-76.58346,Glen Burnie,America/New_York
21061,39.16116,-76.63226,Glen Burnie,America/New_York
21071,39.48516,-76.8081,Glyndon,America/New_York
21074,39.61746,-76.84351,Hampstead,America/New_York
21075,39.20414,-76.75301,Elkridge,America/New_York
21076,39.16856,-76.72239,Hanover,America/New_York
21077,39.1583,-76.69953,Harmans,America/New_York
21078,39.56911,-76.14776,Havre De Grace,America/New_York
21082,39.48284,-76.46735,Hydes,America/New_York
21084,39.61659,-76.46317,Jarrettsville,America/New_York
21085,39.44462,-76.35601,Joppa,America/New_York
21087,39.44728,-76.41583,Kingsville,America/New_York
21090,39.20919,-76.66796,Linthicum Heights,America/New_York
21093,39.43773,-76.64318,Lutherville Timonium,America/New_York
21102,39.68732,-76.84564,Manchester,America/New_York
21104,39.35044,-76.90654,Marriottsville,America/New_York
21105,39.71512,-76.65225,Maryland Line,America/New_York
21108,39.08932,-76.62139,Millersville,America/New_York
21111,39.57568,-76.58089,Monkton,America/New_York
21113,39.05448,-76.71519,Odenton,America/New_York
21114,39.00967,-76.6839,Crofton,America/New_York
21117,39.42719,-76.77795,Owings Mills,America/New_York
21120,39.64723,-76.67703,Parkton,America/New_York
21122,39.11631,-76.49941,Pasadena,America/New_York
21128,39.40526,-76.44628,Perry Hall,America/New_York
21130,39.47495,-76.18921,Perryman,America/New_York
21131,39.50338,-76.57486,Phoenix,America/New_York
21132,39.69601,-76.42577,Pylesville,America/New_York
21133,39.37705,-76.81174,Randallstown,America/New_York
21136,39.48851,-76.80888,Reisterstown,America/New_York
21140,38.95062,-76.58569,Riva,America/New_York
21144,39.12058,-76.67767,Severn,America/New_York
21146,39.07737,-76.55613,Severna Park,America/New_York
21152,39.54905,-76.68107,Sparks Glencoe,America/New_York
21153,39.41649,-76.707,Stevenson,America/New_York
21154,39.65314,-76.36087,Street,America/New_York
21155,39.57183,-76.80597,Upperco,America/New_York
21156,39.43752,-76.397,Upper Falls,America/New_York
21157,39.54889,-76.98162,Westminster,America/New_York
21158,39.6466,-77.03217,Westminster,America/New_York
21160,39.70728,-76.30754,Whiteford,America/New_York
21161,39.65983,-76.56475,White Hall,America/New_York
21162,39.39084,-76.40164,White Marsh,America/New_York
21163,39.34024,-76.85706,Woodstock,America/New_York
21201,39.29487,-76.62237,Baltimore,America/New_York
21202,39.29705,-76.60747,Baltimore,America/New_York
21204,39.40353,-76.63024,Towson,America/New_York
21205,39.30227,-76.56413,Baltimore,America/New_York
21206,39.33932,-76.53706,Baltimore,America/New_York
21207,39.32417,-76.72017,Gwynn Oak,America/New_York
21208,39.38401,-76.72547,Pikesville,America/New_York
21209,39.37261,-76.66802,Baltimore,America/New_York
21210,39.35878,-76.63521,Baltimore,America/New_York
21211,39.32857,-76.6389,Baltimore,America/New_York
21212,39.3678,-76.61456,Baltimore,America/New_York
21213,39.31501,-76.57723,Baltimore,America/New_York
21214,39.35217,-76.5644,Baltimore,America/New_York
21215,39.34578,-76.68367,Baltimore,America/New_York
21216,39.3108,-76.67145,Baltimore,America/New_York
21217,39.30701,-76.63833,Baltimore,America/New_York
21218,39.33031,-76.60235,Baltimore,America/New_York
21219,39.23097,-76.44383,Sparrows Point,America/New_York
21220,39.345,-76.3966,Middle River,America/New_York
21221,39.29462,-76.44034,Essex,America/New_York
21222,39.26424,-76.49537,Dundalk,America/New_York
21223,39.28421,-76.65323,Baltimore,America/New_York
21224,39.28309,-76.54088,Baltimore,America/New_York
21225,39.22597,-76.61508,Brooklyn,America/New_York
21226,39.2078,-76.5627,Curtis Bay,America/New_York
21227,39.24024,-76.67913,Halethorpe,America/New_York
21228,39.27272,-76.74687,Catonsville,America/New_York
21229,39.28509,-76.69083,Baltimore,America/New_York
21230,39.26651,-76.62213,Baltimore,America/New_York
21231,39.28775,-76.592,Baltimore,America/New_York
21233,39.29244,-76.60503,Baltimore,America/New_York
21234,39.395,-76.53252,Parkville,America/New_York
21236,39.38789,-76.48552,Nottingham,America/New_York
21237,39.33938,-76.49456,Rosedale,America/New_York
21239,39.36517,-76.58709,Baltimore,America/New_York
21240,39.17483,-76.67181,Baltimore,America/New_York
21244,39.3342,-76.78217,Windsor Mill,America/New_York
21250,39.25558,-76.71117,Baltimore,America/New_York
21251,39.34993,-76.58027,Baltimore,America/New_York
21252,39.39413,-76.61144,Towson,America/New_York
21285,39.3875,-76.61702,Towson,America/New_York
21286,39.41374,-76.57375,Towson,America/New_York
21287,39.29899,-76.58817,Baltimore,America/New_York
21401,38.98967,-76.5505,Annapolis,America/New_York
21402,38.98816,-76.47202,Annapolis,America/New_York
21403,38.94433,-76.49296,Annapolis,America/New_York
21405,39.02996,-76.54971,Annapolis,America/New_York
21409,39.01968,-76.44738,Annapolis,America/New_York
21502,39.64143,-78.75609,Cumberland,America/New_York
21520,39.63661,-79.30786,Accident,America/New_York
21521,39.55042,-79.04836,Barton,America/New_York
21523,39.47956,-79.07925,Bloomington,America/New_York
21524,39.70666,-78.80203,Corriganville,America/New_York
21529,39.71692,-78.77474,Ellerslie,America/New_York
21530,39.68878,-78.54138,Flintstone,America/New_York
21531,39.64862,-79.42221,Friendsville,America/New_York
21532,39.65559,-78.96025,Frostburg,America/New_York
21536,39.65619,-79.16924,Grantsville,America/New_York
21538,39.40133,-79.22109,Kitzmiller,America/New_York
21539,39.59828,-79.01074,Lonaconing,America/New_York
21540,39.47659,-79.05929,Luke,America/New_York
21541,39.55727,-79.36732,McHenry,America/New_York
21542,39.59114,-78.95087,Midland,America/New_York
21543,39.64157,-78.96231,Midlothian,America/New_York
21545,39.6991,-78.86513,Mount Savage,America/New_York
21550,39.39107,-79.39085,Oakland,America/New_York
21555,39.58777,-78.55685,Oldtown,America/New_York
21557,39.5191,-78.92353,Rawlings,America/New_York
21560,39.56508,-78.70632,Spring Gap,America/New_York
21561,39.49976,-79.20482,Swanton,America/New_York
21562,39.50326,-79.05046,Westernport,America/New_York
21601,38.79275,-76.08242,Easton,America/New_York
21607,39.13398,-75.85644,Barclay,America/New_York
21610,39.3652,-76.06845,Betterton,America/New_York
21612,38.74928,-76.27695,Bozman,America/New_York
21613,38.49537,-76.07169,Cambridge,America/New_York
21617,39.04985,-76.03819,Centreville,America/New_York
21619,38.95285,-76.27939,Chester,America/New_York
21620,39.20667,-76.08739,Chestertown,America/New_York
21622,38.40821,-76.17381,Church Creek,America/New_York
21623,39.11915,-75.96268,Church Hill,America/New_York
21624,38.83407,-76.27212,Claiborne,America/New_York
21625,38.86925,-75.99216,Cordova,America/New_York
21626,38.33902,-76.08398,Crapo,America/New_York
21627,38.23528,-76.04967,Crocheron,America/New_York
21628,39.23577,-75.92238,Crumpton,America/New_York
21629,38.86111,-75.82753,Denton,America/New_York
21631,38.58784,-75.94598,East New Market,America/New_York
21632,38.72287,-75.77478,Federalsburg,America/New_York
21634,38.27995,-76.185,Fishing Creek,America/New_York
21635,39.34006,-75.83826,Galena,America/New_York
21636,39.0261,-75.79839,Goldsboro,America/New_York
21638,38.94513,-76.20263,Grasonville,America/New_York
21639,38.96533,-75.7928,Greensboro,America/New_York
21640,39.07036,-75.82533,Henderson,America/New_York
21641,38.91696,-75.94161,Hillsboro,America/New_York
21643,38.6442,-75.87124,Hurlock,America/New_York
21644,39.11728,-75.87441,Ingleside,America/New_York
21645,39.31979,-75.96216,Kennedyville,America/New_York
21647,38.80114,-76.2831,Mcdaniel,America/New_York
21648,38.4966,-76.23386,Madison,America/New_York
21649,39.1366,-75.77453,Marydel,America/New_York
21650,39.31286,-75.80795,Massey,America/New_York
21651,39.25821,-75.85802,Millington,America/New_York
21652,38.72028,-76.28108,Neavitt,America/New_York
21653,38.74704,-76.17744,Newcomb,America/New_York
21654,38.6908,-76.12518,Oxford,America/New_York
21655,38.74601,-75.92103,Preston,America/New_York
21657,38.9534,-75.99042,Queen Anne,America/New_York
21658,38.94071,-76.13819,Queenstown,America/New_York
21659,38.57442,-75.79985,Rhodesdale,America/New_York
21660,38.95534,-75.88839,Ridgely,America/New_York
21661,39.12905,-76.21967,Rock Hall,America/New_York
21662,38.7136,-76.20209,Royal Oak,America/New_York
21663,38.78333,-76.23303,Saint Michaels,America/New_York
21664,38.6081,-75.94732,Secretary,America/New_York
21665,38.75158,-76.34469,Sherwood,America/New_York
21666,38.93956,-76.33272,Stevensville,America/New_York
21667,39.34377,-76.05188,Still Pond,America/New_York
21668,39.18967,-75.85139,Sudlersville,America/New_York
21669,38.45897,-76.28509,Taylors Island,America/New_York
21671,38.69658,-76.33562,Tilghman,America/New_York
21672,38.27707,-76.06148,Toddville,America/New_York
21673,38.65235,-76.04163,Trappe,America/New_York
21675,38.29011,-76.0884,Wingate,America/New_York
21676,38.78628,-76.30548,Wittman,America/New_York
21677,38.48454,-76.18544,Woolford,America/New_York
21678,39.30889,-76.10336,Worton,America/New_York
21679,38.91722,-76.08875,Wye Mills,America/New_York
21701,39.44729,-77.33512,Frederick,America/New_York
21702,39.48019,-77.4578,Frederick,America/New_York
21703,39.36961,-77.47088,Frederick,America/New_York
21704,39.3506,-77.3735,Frederick,America/New_York
21705,39.40887,-77.41002,Frederick,America/New_York
21710,39.29652,-77.44941,Adamstown,America/New_York
21711,39.66808,-78.01247,Big Pool,America/New_York
21713,39.52618,-77.66933,Boonsboro,America/New_York
21714,39.41059,-77.51003,Braddock Heights,America/New_York
21715,39.37879,-77.66063,Brownsville,America/New_York
21716,39.31798,-77.6262,Brunswick,America/New_York
21717,39.33865,-77.43147,Buckeystown,America/New_York
21718,39.39343,-77.62734,Burkittsville,America/New_York
21719,39.70501,-77.49977,Cascade,America/New_York
21722,39.66575,-77.91457,Clear Spring,America/New_York
21723,39.32825,-77.01056,Cooksville,America/New_York
21727,39.68865,-77.33096,Emmitsburg,America/New_York
21733,39.55004,-77.75838,Fairplay,America/New_York
21734,39.60583,-77.70382,Funkstown,America/New_York
21737,39.2543,-77.01959,Glenelg,America/New_York
21738,39.27973,-77.02554,Glenwood,America/New_York
21740,39.63233,-77.73902,Hagerstown,America/New_York
21742,39.67363,-77.65928,Hagerstown,America/New_York
21746,39.56591,-77.71409,Hagerstown,America/New_York
21750,39.68698,-78.2129,Hancock,America/New_York
21754,39.33684,-77.31131,Ijamsville,America/New_York
21755,39.36101,-77.56887,Jefferson,America/New_York
21756,39.45758,-77.70118,Keedysville,America/New_York
21757,39.59902,-77.25906,Keymar,America/New_York
21758,39.34567,-77.66265,Knoxville,America/New_York
21762,39.48058,-77.24842,Libertytown,America/New_York
21766,39.65928,-78.39859,Little Orleans,America/New_York
21767,39.69773,-77.74638,Maugansville,America/New_York
21769,39.44582,-77.56489,Middletown,America/New_York
21770,39.35245,-77.25791,Monrovia,America/New_York
21771,39.3955,-77.15869,Mount Airy,America/New_York
21773,39.53725,-77.55301,Myersville,America/New_York
21774,39.4088,-77.27844,New Market,America/New_York
21776,39.51861,-77.10376,New Windsor,America/New_York
21777,39.27918,-77.5287,Point Of Rocks,America/New_York
21778,39.61576,-77.33754,Rocky Ridge,America/New_York
21779,39.42447,-77.65398,Rohrersville,America/New_York
21780,39.67676,-77.46777,Sabillasville,America/New_York
21781,39.57123,-77.75981,Saint James,America/New_York
21782,39.4552,-77.75995,Sharpsburg,America/New_York
21783,39.64885,-77.55903,Smithsburg,America/New_York
21784,39.40087,-76.9726,Sykesville,America/New_York
21787,39.67169,-77.17317,Taneytown,America/New_York
21788,39.59429,-77.41958,Thurmont,America/New_York
21790,39.25908,-77.49559,Tuscarora,America/New_York
21791,39.54267,-77.18713,Union Bridge,America/New_York
21793,39.48963,-77.34357,Walkersville,America/New_York
21794,39.29705,-76.97388,West Friendship,America/New_York
21795,39.582,-77.82733,Williamsport,America/New_York
21797,39.33284,-77.07002,Woodbine,America/New_York
21798,39.53858,-77.29985,Woodsboro,America/New_York
21801,38.38106,-75.64073,Salisbury,America/New_York
21804,38.31726,-75.53673,Salisbury,America/New_York
21810,38.29005,-75.68887,Allen,America/New_York
21811,38.31977,-75.22024,Berlin,America/New_York
21813,38.42658,-75.17293,Bishopville,America/New_York
21814,38.29176,-75.88669,Bivalve,America/New_York
21817,37.98081,-75.83537,Crisfield,America/New_York
21821,38.16664,-75.90611,Deal Island,America/New_York
21822,38.28129,-75.65566,Eden,America/New_York
21824,37.97982,-76.02871,Ewell,America/New_York
21826,38.32077,-75.62353,Fruitland,America/New_York
21829,38.09892,-75.38324,Girdletree,America/New_York
21830,38.40202,-75.72841,Hebron,America/New_York
21835,38.53355,-75.93758,Linkwood,America/New_York
21837,38.4594,-75.76731,Mardela Springs,America/New_York
21838,38.01452,-75.73098,Marion Station,America/New_York
21840,38.25814,-75.89276,Nanticoke,America/New_York
21841,38.24385,-75.29588,Newark,America/New_York
21842,38.3778,-75.09084,Ocean City,America/New_York
21849,38.37006,-75.46064,Parsonsburg,America/New_York
21850,38.36171,-75.39867,Pittsville,America/New_York
21851,38.07825,-75.54375,Pocomoke City,America/New_York
21853,38.20453,-75.7102,Princess Anne,America/New_York
21856,38.33807,-75.79224,Quantico,America/New_York
21861,38.53525,-75.72834,Sharptown,America/New_York
21862,38.39716,-75.21514,Showell,America/New_York
21863,38.19167,-75.40327,Snow Hill,America/New_York
21864,38.04355,-75.40532,Stockton,America/New_York
21865,38.28605,-75.83296,Tyaskin,America/New_York
21866,37.9672,-76.02137,Tylerton,America/New_York
21867,38.11025,-75.79399,Upper Fairmount,America/New_York
21869,38.43246,-75.89012,Vienna,America/New_York
21871,38.10489,-75.73127,Westover,America/New_York
21872,38.4163,-75.29399,Whaleyville,America/New_York
21874,38.39266,-75.35417,Willards,America/New_York
21875,38.44038,-75.54559,Delmar,America/New_York
21890,38.15673,-75.6998,Westover,America/New_York
21901,39.58593,-75.95821,North East,America/New_York
21902,39.55229,-76.06157,Perry Point,America/New_York
21903,39.57274,-76.04378,Perryville,America/New_York
21904,39.62303,-76.07812,Port Deposit,America/New_York
21911,39.68931,-76.03886,Rising Sun,America/New_York
21912,39.42486,-75.81607,Warwick,America/New_York
21913,39.40973,-75.87073,Cecilton,America/New_York
21914,39.57256,-75.98158,Charlestown,America/New_York
21915,39.50095,-75.84764,Chesapeake City,America/New_York
21917,39.67106,-76.09823,Colora,America/New_York
21918,39.68327,-76.16662,Conowingo,America/New_York
21919,39.42047,-75.93372,Earleville,America/New_York
21920,39.65675,-75.83449,Elk Mills,America/New_York
21921,39.62568,-75.85904,Elkton,America/New_York
21930,39.37198,-75.89115,Georgetown,America/New_York
22003,38.8308,-77.21402,Annandale,America/New_York
22015,38.78784,-77.28136,Burke,America/New_York
22025,38.59874,-77.3491,Dumfries,America/New_York
22026,38.56717,-77.29476,Dumfries,America/New_York
22027,38.89411,-77.22159,Dunn Loring,America/New_York
22030,38.83891,-77.34188,Fairfax,America/New_York
22031,38.85954,-77.2599,Fairfax,America/New_York
22032,38.82012,-77.29032,Fairfax,America/New_York
22033,38.87564,-77.38419,Fairfax,America/New_York
22035,38.85628,-77.36269,Fairfax,America/New_York
22039,38.74992,-77.31536,Fairfax Station,America/New_York
22041,38.8485,-77.14212,Falls Church,America/New_York
22042,38.86463,-77.19406,Falls Church,America/New_York
22043,38.90076,-77.19746,Falls Church,America/New_York
22044,38.85957,-77.15627,Falls Church,America/New_York
22046,38.88696,-77.18025,Falls Church,America/New_York
22060,38.70525,-77.15636,Fort Belvoir,America/New_York
22066,39.01032,-77.30258,Great Falls,America/New_York
22079,38.67998,-77.2055,Lorton,America/New_York
22101,38.9386,-77.16513,McLean,America/New_York
22102,38.95199,-77.22901,McLean,America/New_York
22124,38.8909,-77.33025,Oakton,America/New_York
22125,38.68217,-77.26073,Occoquan,America/New_York
22134,38.53186,-77.409,Quantico,America/New_York
22150,38.77198,-77.18605,Springfield,America/New_York
22151,38.80283,-77.2096,Springfield,America/New_York
22152,38.77564,-77.23149,Springfield,America/New_York
22153,38.74443,-77.23451,Springfield,America/New_York
22172,38.5742,-77.3895,Triangle,America/New_York
22180,38.89619,-77.25426,Vienna,America/New_York
22181,38.9053,-77.29466,Vienna,America/New_York
22182,38.93611,-77.2736,Vienna,America/New_York
22191,38.6249,-77.26849,Woodbridge,America/New_York
22192,38.68358,-77.31821,Woodbridge,America/New_York
22193,38.64233,-77.34881,Woodbridge,America/New_York
22201,38.88684,-77.09501,Arlington,America/New_York
22202,38.8569,-77.05175,Arlington,America/New_York
22203,38.87377,-77.1164,Arlington,America/New_York
22204,38.86076,-77.09894,Arlington,America/New_York
22205,38.88337,-77.13948,Arlington,America/New_York
22206,38.8442,-77.0886,Arlington,America/New_York
22207,38.90665,-77.12384,Arlington,America/New_York
22209,38.89413,-77.07309,Arlington,America/New_York
22211,38.88011,-77.07482,Fort Myer,America/New_York
22213,38.89459,-77.16239,Arlington,America/New_York
22214,38.87499,-77.06501,Arlington,America/New_York
22301,38.81995,-77.05934,Alexandria,America/New_York
22302,38.82799,-77.08432,Alexandria,America/New_York
22303,38.794,-77.08175,Alexandria,America/New_York
22304,38.81361,-77.11498,Alexandria,America/New_York
22305,38.83655,-77.06234,Alexandria,America/New_York
22306,38.75655,-77.09254,Alexandria,America/New_York
22307,38.7708,-77.05694,Alexandria,America/New_York
22308,38.72957,-77.05876,Alexandria,America/New_York
22309,38.71931,-77.10724,Alexandria,America/New_York
22310,38.78447,-77.12231,Alexandria,America/New_York
22311,38.83442,-77.12313,Alexandria,America/New_York
22312,38.81685,-77.15372,Alexandria,America/New_York
22314,38.80732,-77.0563,Alexandria,America/New_York
22315,38.75735,-77.14803,Alexandria,America/New_York
22401,38.29928,-77.48704,Fredericksburg,America/New_York
22405,38.31568,-77.40377,Fredericksburg,America/New_York
22406,38.39964,-77.55596,Fredericksburg,America/New_York
22407,38.28581,-77.58055,Fredericksburg,America/New_York
22408,38.21916,-77.44013,Fredericksburg,America/New_York
22427,38.07177,-77.28624,Bowling Green,America/New_York
22432,37.8637,-76.35043,Burgess,America/New_York
22433,38.35875,-77.86093,Burr Hill,America/New_York
22435,37.97216,-76.57288,Callao,America/New_York
22436,38.04698,-77.07471,Caret,America/New_York
22437,37.7764,-76.8156,Center Cross,America/New_York
22438,38.03788,-76.99971,Champlain,America/New_York
22443,38.18078,-76.99776,Colonial Beach,America/New_York
22448,38.33996,-77.03238,Dahlgren,America/New_York
22454,37.83599,-76.85032,Dunnsville,America/New_York
22460,37.87612,-76.60692,Farnham,America/New_York
22469,38.0667,-76.64749,Hague,America/New_York
22472,37.95897,-76.67257,Haynesville,America/New_York
22473,37.88316,-76.41386,Heathsville,America/New_York
22476,38.03807,-77.06872,Hustle,America/New_York
22480,37.66631,-76.41498,Irvington,America/New_York
22482,37.73723,-76.35245,Kilmarnock,America/New_York
22485,38.2717,-77.15996,King George,America/New_York
22488,38.04986,-76.58796,Kinsale,America/New_York
22503,37.7624,-76.50432,Lancaster,America/New_York
22504,37.76346,-76.72675,Laneview,America/New_York
22508,38.31732,-77.7913,Locust Grove,America/New_York
22509,38.10642,-77.06669,Loretto,America/New_York
22511,37.98352,-76.50323,Lottsburg,America/New_York
22514,37.9724,-77.24471,Milford,America/New_York
22520,38.11651,-76.80634,Montross,America/New_York
22529,38.01036,-76.67942,Oldhams,America/New_York
22534,38.08473,-77.67062,Partlow,America/New_York
22535,38.12314,-77.19619,Port Royal,America/New_York
22538,38.18941,-77.27334,Rappahannock Academy,America/New_York
22539,37.85865,-76.28731,Reedville,America/New_York
22542,38.29348,-77.88837,Rhoadesville,America/New_York
22546,37.94342,-77.44565,Ruther Glen,America/New_York
22548,37.82929,-76.69256,Sharps,America/New_York
22551,38.17273,-77.70575,Spotsylvania,America/New_York
22553,38.26594,-77.6397,Spotsylvania,America/New_York
22554,38.42285,-77.3835,Stafford,America/New_York
22556,38.48624,-77.513,Stafford,America/New_York
22560,37.91289,-76.96196,Tappahannock,America/New_York
22567,38.23395,-77.92401,Unionville,America/New_York
22572,37.97552,-76.77495,Warsaw,America/New_York
22576,37.69398,-76.43277,Weems,America/New_York
22578,37.65063,-76.36268,White Stone,America/New_York
22580,38.10941,-77.44419,Woodford,America/New_York
22601,39.1743,-78.1743,Winchester,America/New_York
22602,39.1508,-78.26555,Winchester,America/New_York
22603,39.28153,-78.2056,Winchester,America/New_York
22610,38.81803,-78.28102,Bentonville,America/New_York
22611,39.16374,-77.98512,Berryville,America/New_York
22620,39.06417,-78.03317,Boyce,America/New_York
22623,38.85158,-78.13734,Chester Gap,America/New_York
22624,39.26535,-78.09507,Clear Brook,America/New_York
22625,39.37397,-78.31172,Cross Junction,America/New_York
22627,38.76554,-78.11371,Flint Hill,America/New_York
22630,38.92909,-78.18052,Front Royal,America/New_York
22637,39.25057,-78.3605,Gore,America/New_York
22639,38.82625,-78.0321,Hume,America/New_York
22640,38.80737,-78.13302,Huntly,America/New_York
22641,39.07795,-78.38588,Strasburg,America/New_York
22642,38.91532,-78.06538,Linden,America/New_York
22643,38.9034,-78.00801,Markham,America/New_York
22644,38.96362,-78.5314,Maurertown,America/New_York
22645,39.02152,-78.27457,Middletown,America/New_York
22646,39.07019,-78.04803,Millwood,America/New_York
22650,38.75893,-78.35817,Rileyville,America/New_York
22652,38.83921,-78.42894,Fort Valley,America/New_York
22654,39.06863,-78.4586,Star Tannery,America/New_York
22655,39.06443,-78.21425,Stephens City,America/New_York
22656,39.21723,-78.08901,Stephenson,America/New_York
22657,39.00155,-78.36755,Strasburg,America/New_York
22660,38.95628,-78.4383,Toms Brook,America/New_York
22663,39.05,-78.11716,White Post,America/New_York
22664,38.8944,-78.53119,Woodstock,America/New_York
22701,38.44038,-77.99633,Culpeper,America/New_York
22709,38.32769,-78.21732,Aroda,America/New_York
22711,38.46239,-78.27634,Banco,America/New_York
22712,38.55632,-77.75884,Bealeton,America/New_York
22713,38.54123,-78.13204,Boston,America/New_York
22714,38.52068,-77.89363,Brandy Station,America/New_York
22715,38.41032,-78.18541,Brightwood,America/New_York
22716,38.62596,-78.10794,Castleton,America/New_York
22718,38.47076,-77.82026,Elkwood,America/New_York
22719,38.52888,-78.28337,Etlan,America/New_York
22720,38.48044,-77.6468,Goldvein,America/New_York
22722,38.46304,-78.22645,Haywood,America/New_York
22723,38.33789,-78.38821,Hood,America/New_York
22724,38.63286,-77.90752,Jeffersonton,America/New_York
22725,38.44029,-78.1527,Leon,America/New_York
22726,38.40179,-77.81796,Lignum,America/New_York
22727,38.39626,-78.30058,Madison,America/New_York
22728,38.57773,-77.68639,Midland,America/New_York
22729,38.35658,-78.01596,Mitchells,America/New_York
22730,38.36782,-78.16635,Oakpark,America/New_York
22731,38.34413,-78.26151,Pratts,America/New_York
22732,38.30886,-78.19153,Radiant,America/New_York
22733,38.33191,-78.0467,Rapidan,America/New_York
22734,38.52757,-77.81119,Remington,America/New_York
22735,38.47941,-78.18336,Reva,America/New_York
22736,38.39633,-77.69673,Richardsville,America/New_York
22737,38.59024,-78.00205,Rixeyville,America/New_York
22738,38.28692,-78.27685,Rochelle,America/New_York
22740,38.63805,-78.26163,Sperryville,America/New_York
22741,38.44541,-77.86819,Stevensburg,America/New_York
22742,38.4589,-77.71179,Sumerduck,America/New_York
22743,38.52477,-78.37132,Syria,America/New_York
22746,38.62922,-78.0195,Viewtown,America/New_York
22747,38.7122,-78.16768,Washington,America/New_York
22749,38.61945,-78.18394,Woodville,America/New_York
22801,38.40519,-78.87931,Harrisonburg,America/New_York
22802,38.50016,-78.8585,Harrisonburg,America/New_York
22807,38.43495,-78.86736,Harrisonburg,America/New_York
22810,38.84466,-78.78554,Basye,America/New_York
22811,38.79264,-78.9757,Bergton,America/New_York
22812,38.37934,-79.03836,Bridgewater,America/New_York
22815,38.63469,-78.80939,Broadway,America/New_York
22820,38.74387,-79.00948,Criders,America/New_York
22821,38.46349,-79.0743,Dayton,America/New_York
22824,38.84743,-78.6278,Edinburg,America/New_York
22827,38.3903,-78.6131,Elkton,America/New_York
22830,38.65789,-78.97902,Fulks Run,America/New_York
22831,38.56395,-79.10005,Hinton,America/New_York
22832,38.45778,-78.75692,Keezletown,America/New_York
22834,38.55709,-78.85769,Linville,America/New_York
22835,38.67199,-78.4548,Luray,America/New_York
22840,38.38642,-78.73845,McGaheysville,America/New_York
22841,38.33887,-78.89417,Mount Crawford,America/New_York
22842,38.77191,-78.6992,Mount Jackson,America/New_York
22843,38.36703,-79.16053,Mount Solon,America/New_York
22844,38.65886,-78.66038,New Market,America/New_York
22845,38.77991,-78.8375,Orkney Springs,America/New_York
22846,38.38791,-78.79239,Penn Laird,America/New_York
22847,38.71792,-78.70972,Quicksburg,America/New_York
22849,38.5256,-78.6253,Shenandoah,America/New_York
22850,38.56668,-78.92048,Singers Glen,America/New_York
22851,38.56061,-78.51061,Stanley,America/New_York
22853,38.65156,-78.76406,Timberville,America/New_York
22901,38.08874,-78.55569,Charlottesville,America/New_York
22902,37.95566,-78.46883,Charlottesville,America/New_York
22903,38.01239,-78.60159,Charlottesville,America/New_York
22904,38.03492,-78.51161,Charlottesville,America/New_York
22908,38.03103,-78.49639,Charlottesville,America/New_York
22911,38.09522,-78.4078,Charlottesville,America/New_York
22920,37.97294,-78.81276,Afton,America/New_York
22922,37.68621,-78.92511,Arrington,America/New_York
22923,38.18671,-78.32405,Barboursville,America/New_York
22931,37.90374,-78.71696,Covesville,America/New_York
22932,38.15037,-78.69743,Crozet,America/New_York
22935,38.25785,-78.55474,Dyke,America/New_York
22936,38.1671,-78.49974,Earlysville,America/New_York
22937,37.81297,-78.60891,Esmont,America/New_York
22938,37.86256,-78.78248,Faber,America/New_York
22939,38.10575,-78.97288,Fishersville,America/New_York
22940,38.20559,-78.59705,Free Union,America/New_York
22942,38.10397,-78.19684,Gordonsville,America/New_York
22943,38.04508,-78.78369,Greenwood,America/New_York
22946,37.84789,-78.56053,Keene,America/New_York
22947,38.04326,-78.32624,Keswick,America/New_York
22948,38.35154,-78.12264,Locust Dale,America/New_York
22949,37.788,-78.88257,Lovingston,America/New_York
22952,37.95836,-78.97136,Lyndhurst,America/New_York
22957,38.22998,-78.1918,Montpelier Station,America/New_York
22958,37.8983,-78.89611,Nellysford,America/New_York
22959,37.93758,-78.64794,North Garden,America/New_York
22960,38.21992,-78.06624,Orange,America/New_York
22963,37.84793,-78.28524,Palmyra,America/New_York
22964,37.71722,-78.98861,Piney River,America/New_York
22967,37.79945,-79.0192,Roseland,America/New_York
22968,38.24111,-78.39407,Ruckersville,America/New_York
22969,37.79699,-78.69367,Schuyler,America/New_York
22971,37.75019,-78.80299,Shipman,America/New_York
22972,38.21746,-78.23451,Somerset,America/New_York
22973,38.33588,-78.46915,Stanardsville,America/New_York
22974,37.96207,-78.2753,Troy,America/New_York
22976,37.84555,-79.04036,Tyro,America/New_York
22980,38.09588,-78.88585,Waynesboro,America/New_York
22989,38.29328,-78.11943,Woodberry Forest,America/New_York
23002,37.34917,-77.96357,Amelia Court House,America/New_York
23004,37.68307,-78.40567,Arvonia,America/New_York
23005,37.75982,-77.4826,Ashland,America/New_York
23009,37.81038,-77.18717,Aylett,America/New_York
23011,37.47562,-76.80691,Barhamsville,America/New_York
23015,37.93127,-77.63124,Beaverdam,America/New_York
23021,37.40102,-76.37187,Bohannon,America/New_York
23022,37.7353,-78.26432,Bremo Bluff,America/New_York
23023,37.78293,-76.96586,Bruington,America/New_York
23024,37.92448,-77.77554,Bumpass,America/New_York
23025,37.41447,-76.36204,Cardinal,America/New_York
23027,37.64551,-78.13183,Cartersville,America/New_York
23030,37.34652,-77.05962,Charles City,America/New_York
23032,37.65552,-76.68199,Church View,America/New_York
23035,37.49809,-76.37679,Cobbs Creek,America/New_York
23038,37.75627,-78.14552,Columbia,America/New_York
23039,37.65503,-77.80596,Crozier,America/New_York
23040,37.51017,-78.24919,Cumberland,America/New_York
23043,37.55519,-76.34357,Deltaville,America/New_York
23045,37.42937,-76.27069,Diggs,America/New_York
23047,37.84765,-77.48973,Doswell,America/New_York
23050,37.48918,-76.41986,Dutton,America/New_York
23055,37.7706,-78.21852,Fork Union,America/New_York
23056,37.41809,-76.38724,Foster,America/New_York
23059,37.70424,-77.56539,Glen Allen,America/New_York
23060,37.65981,-77.53427,Glen Allen,America/New_York
23061,37.4331,-76.55019,Gloucester,America/New_York
23062,37.258,-76.50404,Gloucester Point,America/New_York
23063,37.71694,-77.99882,Goochland,America/New_York
23065,37.8016,-77.92979,Gum Spring,America/New_York
23066,37.49836,-76.28831,Gwynn,America/New_York
23068,37.49511,-76.33727,Hallieford,America/New_York
23069,37.76924,-77.32874,Hanover,America/New_York
23070,37.55065,-76.38528,Hardyville,America/New_York
23071,37.54326,-76.45228,Hartfield,America/New_York
23072,37.29543,-76.48148,Hayes,America/New_York
23075,37.54938,-77.31591,Henrico,America/New_York
23076,37.47328,-76.30499,Hudgins,America/New_York
23079,37.7248,-76.68941,Jamaica,America/New_York
23081,37.20758,-76.7617,Jamestown,America/New_York
23083,37.31899,-78.11111,Jetersville,America/New_York
23084,37.8864,-78.11162,Kents Store,America/New_York
23085,37.70623,-76.84205,King And Queen Court House,America/New_York
23086,37.66296,-77.05394,King William,America/New_York
23089,37.47593,-76.91212,Lanexa,America/New_York
23091,37.64647,-76.80167,Little Plymouth,America/New_York
23092,37.59402,-76.50755,Locust Hill,America/New_York
23093,38.00153,-78.03595,Louisa,America/New_York
23102,37.71053,-77.83325,Maidens,America/New_York
23103,37.6506,-77.72754,Manakin Sabot,America/New_York
23106,37.71524,-77.2062,Manquin,America/New_York
23108,37.65523,-76.73015,Mascot,America/New_York
23109,37.43263,-76.32445,Mathews,America/New_York
23110,37.58338,-76.76578,Mattaponi,America/New_York
23111,37.6112,-77.24697,Mechanicsville,America/New_York
23112,37.43738,-77.66394,Midlothian,America/New_York
23113,37.53935,-77.68093,Midlothian,America/New_York
23114,37.48317,-77.66054,Midlothian,America/New_York
23116,37.67152,-77.33458,Mechanicsville,America/New_York
23117,37.97736,-77.87365,Mineral,America/New_York
23119,37.45139,-76.27978,Moon,America/New_York
23120,37.40872,-77.78468,Moseley,America/New_York
23123,37.65238,-78.3031,New Canton,America/New_York
23124,37.55271,-77.05949,New Kent,America/New_York
23126,37.92285,-77.1448,Newtown,America/New_York
23128,37.4514,-76.43216,North,America/New_York
23129,37.705,-77.78261,Oilville,America/New_York
23130,37.39048,-76.26494,Onemo,America/New_York
23138,37.36245,-76.30062,Port Haywood,America/New_York
23139,37.54999,-77.93507,Powhatan,America/New_York
23140,37.43852,-77.04818,Providence Forge,America/New_York
23141,37.53042,-77.15791,Quinton,America/New_York
23146,37.7273,-77.70928,Rockville,America/New_York
23147,37.36965,-77.0391,Ruthville,America/New_York
23148,37.84262,-77.06223,Saint Stephens Church,America/New_York
23149,37.56794,-76.61599,Saluda,America/New_York
23150,37.50718,-77.25402,Sandston,America/New_York
23153,37.77641,-77.95719,Sandy Hook,America/New_York
23156,37.5244,-76.71106,Shacklefords,America/New_York
23160,37.62757,-77.84028,State Farm,America/New_York
23161,37.72152,-76.93037,Stevensville,America/New_York
23163,37.3572,-76.29765,Susan,America/New_York
23168,37.3942,-76.832,Toano,America/New_York
23169,37.58945,-76.46225,Topping,America/New_York
23173,37.57677,-77.54069,Richmond,America/New_York
23175,37.65343,-76.62407,Urbanna,America/New_York
23176,37.56934,-76.41991,Wake,America/New_York
23177,37.73088,-77.00295,Walkerton,America/New_York
23180,37.69977,-76.62045,Water View,America/New_York
23181,37.59809,-76.889,West Point,America/New_York
23185,37.24927,-76.68702,Williamsburg,America/New_York
23188,37.33849,-76.74925,Williamsburg,America/New_York
23192,37.81732,-77.68209,Montpelier,America/New_York
23219,37.54076,-77.43484,Richmond,America/New_York
23220,37.54923,-77.46012,Richmond,America/New_York
23221,37.5533,-77.49056,Richmond,America/New_York
23222,37.58265,-77.41894,Richmond,America/New_York
23223,37.55595,-77.37927,Richmond,America/New_York
23224,37.4985,-77.46563,Richmond,America/New_York
23225,37.51872,-77.51044,Richmond,America/New_York
23226,37.57774,-77.5198,Richmond,America/New_York
23227,37.61486,-77.44234,Richmond,America/New_York
23228,37.62588,-77.49125,Henrico,America/New_York
23229,37.58785,-77.56973,Henrico,America/New_York
23230,37.587,-77.49153,Richmond,America/New_York
23231,37.44219,-77.31903,Henrico,America/New_York
23233,37.64461,-77.62828,Henrico,America/New_York
23234,37.45293,-77.46752,Richmond,America/New_York
23235,37.51314,-77.56426,Richmond,America/New_York
23236,37.47438,-77.58634,Richmond,America/New_York
23237,37.40173,-77.45433,Richmond,America/New_York
23238,37.59595,-77.64138,Henrico,America/New_York
23250,37.50517,-77.32098,Richmond,America/New_York
23284,37.54759,-77.45273,Richmond,America/New_York
23294,37.63048,-77.54205,Henrico,America/New_York
23298,37.5416,-77.42954,Richmond,America/New_York
23301,37.68402,-75.6397,Accomac,America/New_York
23302,37.85858,-75.52197,Assawoman,America/New_York
23303,37.90346,-75.50562,Atlantic,America/New_York
23304,36.99586,-76.56993,Battery Park,America/New_York
23306,37.56859,-75.88148,Belle Haven,America/New_York
23307,37.43282,-75.87095,Birdsnest,America/New_York
23308,37.82431,-75.61773,Bloxom,America/New_York
23310,37.26407,-75.95676,Cape Charles,America/New_York
23314,36.95054,-76.53625,Carrollton,America/New_York
23315,36.73861,-76.84289,Carrsville,America/New_York
23316,37.29517,-75.96635,Cheriton,America/New_York
23320,36.75208,-76.21807,Chesapeake,America/New_York
23321,36.80067,-76.42189,Chesapeake,America/New_York
23322,36.62703,-76.26929,Chesapeake,America/New_York
23323,36.70785,-76.37949,Chesapeake,America/New_York
23324,36.79996,-76.27517,Chesapeake,America/New_York
23325,36.81507,-76.239,Chesapeake,America/New_York
23336,37.95461,-75.33759,Chincoteague Island,America/New_York
23337,37.93332,-75.46691,Wallops Island,America/New_York
23347,37.36026,-75.96798,Eastville,America/New_York
23350,37.51489,-75.87428,Exmore,America/New_York
23354,37.47806,-75.90225,Franktown,America/New_York
23356,37.9905,-75.39228,Greenbackville,America/New_York
23357,37.75862,-75.67459,Greenbush,America/New_York
23358,37.64406,-75.86495,Hacksneck,America/New_York
23359,37.88643,-75.60422,Hallwood,America/New_York
23389,37.65731,-75.83226,Harborton,America/New_York
23395,37.97051,-75.45159,Horntown,America/New_York
23398,37.52054,-75.93971,Jamesville,America/New_York
23401,37.62776,-75.77843,Keller,America/New_York
23405,37.41466,-75.91969,Machipongo,America/New_York
23407,37.8432,-75.55362,Mappsville,America/New_York
23408,37.4533,-75.84587,Marionville,America/New_York
23409,37.88017,-75.64709,Mears,America/New_York
23410,37.63802,-75.74306,Melfa,America/New_York
23413,37.4653,-75.85356,Nassawadox,America/New_York
23414,37.81375,-75.58688,Nelsonia,America/New_York
23415,37.97459,-75.53443,New Church,America/New_York
23416,37.93371,-75.557,Oak Hall,America/New_York
23417,37.73061,-75.76687,Onancock,America/New_York
23418,37.63821,-75.66926,Onley,America/New_York
23420,37.58275,-75.81166,Painter,America/New_York
23421,37.76564,-75.61429,Parksley,America/New_York
23422,37.63647,-75.82397,Pungoteague,America/New_York
23423,37.52361,-75.73969,Quinby,America/New_York
23426,37.92706,-75.67506,Sanford,America/New_York
23427,37.9124,-75.71344,Saxis,America/New_York
23430,36.98615,-76.66337,Smithfield,America/New_York
23432,36.87099,-76.55097,Suffolk,America/New_York
23433,36.90763,-76.49183,Suffolk,America/New_York
23434,36.70163,-76.59074,Suffolk,America/New_York
23435,36.83751,-76.4803,Suffolk,America/New_York
23436,36.89516,-76.50873,Suffolk,America/New_York
23437,36.63533,-76.80256,Suffolk,America/New_York
23438,36.58116,-76.69749,Suffolk,America/New_York
23440,37.83048,-75.99019,Tangier,America/New_York
23441,37.71208,-75.69943,Tasley,America/New_York
23442,37.90127,-75.56874,Temperanceville,America/New_York
23451,36.87175,-76.00689,Virginia Beach,America/New_York
23452,36.84604,-76.09197,Virginia Beach,America/New_York
23453,36.785,-76.07679,Virginia Beach,America/New_York
23454,36.83216,-76.02616,Virginia Beach,America/New_York
23455,36.88974,-76.1441,Virginia Beach,America/New_York
23456,36.73435,-76.03492,Virginia Beach,America/New_York
23457,36.61686,-76.01576,Virginia Beach,America/New_York
23459,36.91607,-76.17043,Virginia Beach,America/New_York
23460,36.81848,-76.03161,Virginia Beach,America/New_York
23461,36.77244,-75.96172,Virginia Beach,America/New_York
23462,36.8366,-76.15105,Virginia Beach,America/New_York
23464,36.79732,-76.17899,Virginia Beach,America/New_York
23480,37.61388,-75.69077,Wachapreague,America/New_York
23486,37.5177,-75.80824,Willis Wharf,America/New_York
23487,36.85197,-76.72303,Windsor,America/New_York
23488,37.95237,-75.60831,Withams,America/New_York
23502,36.86274,-76.20983,Norfolk,America/New_York
23503,36.94727,-76.26223,Norfolk,America/New_York
23504,36.85677,-76.26568,Norfolk,America/New_York
23505,36.91418,-76.29081,Norfolk,America/New_York
23507,36.8642,-76.30304,Norfolk,America/New_York
23508,36.8844,-76.30898,Norfolk,America/New_York
23509,36.88215,-76.26203,Norfolk,America/New_York
23510,36.8518,-76.29154,Norfolk,America/New_York
23511,36.94,-76.30055,Norfolk,America/New_York
23513,36.88948,-76.23831,Norfolk,America/New_York
23517,36.86927,-76.29198,Norfolk,America/New_York
23518,36.91638,-76.21586,Norfolk,America/New_York
23523,36.83254,-76.27199,Norfolk,America/New_York
23551,36.92359,-76.29238,Norfolk,America/New_York
23601,37.05862,-76.46414,Newport News,America/New_York
23602,37.11511,-76.51625,Newport News,America/New_York
23603,37.19188,-76.56563,Newport News,America/New_York
23604,37.13195,-76.58902,Fort Eustis,America/New_York
23605,37.01754,-76.43527,Newport News,America/New_York
23606,37.07847,-76.49557,Newport News,America/New_York
23607,36.98753,-76.42235,Newport News,America/New_York
23608,37.15093,-76.54343,Newport News,America/New_York
23651,37.0099,-76.30451,Fort Monroe,America/New_York
23661,37.00804,-76.38631,Hampton,America/New_York
23662,37.13178,-76.35678,Poquoson,America/New_York
23663,37.03216,-76.31589,Hampton,America/New_York
23664,37.07467,-76.2925,Hampton,America/New_York
23665,37.08963,-76.36302,Hampton,America/New_York
23666,37.05818,-76.40817,Hampton,America/New_York
23667,37.02081,-76.33093,Hampton,America/New_York
23668,37.02034,-76.33839,Hampton,America/New_York
23669,37.05052,-76.33952,Hampton,America/New_York
23681,37.09697,-76.38389,Hampton,America/New_York
23690,37.21829,-76.52371,Yorktown,America/New_York
23691,37.25906,-76.57322,Yorktown,America/New_York
23692,37.18107,-76.45868,Yorktown,America/New_York
23693,37.12669,-76.44755,Yorktown,America/New_York
23696,37.19249,-76.42589,Seaford,America/New_York
23701,36.81158,-76.36986,Portsmouth,America/New_York
23702,36.80292,-76.32679,Portsmouth,America/New_York
23703,36.88039,-76.37101,Portsmouth,America/New_York
23704,36.82603,-76.3123,Portsmouth,America/New_York
23707,36.84255,-76.34002,Portsmouth,America/New_York
23708,36.84804,-76.30646,Portsmouth,America/New_York
23709,36.81685,-76.29846,Portsmouth,America/New_York
23801,37.23618,-77.33582,Fort Lee,America/New_York
23803,37.21183,-77.48028,Petersburg,America/New_York
23805,37.12922,-77.3953,Petersburg,America/New_York
23821,36.876,-77.91794,Alberta,America/New_York
23824,37.08767,-77.95749,Blackstone,America/New_York
23827,36.61491,-77.20724,Boykins,America/New_York
23828,36.58693,-77.28557,Branchville,America/New_York
23829,36.73393,-77.22525,Capron,America/New_York
23830,37.02098,-77.39771,Carson,America/New_York
23831,37.34437,-77.44998,Chester,America/New_York
23832,37.39436,-77.59491,Chesterfield,America/New_York
23833,37.21094,-77.66947,Church Road,America/New_York
23834,37.28911,-77.40063,Colonial Heights,America/New_York
23836,37.35087,-77.33253,Chester,America/New_York
23837,36.75816,-77.08753,Courtland,America/New_York
23838,37.31772,-77.63288,Chesterfield,America/New_York
23839,37.08718,-76.91895,Dendron,America/New_York
23840,37.05638,-77.67076,Dewitt,America/New_York
23841,37.05421,-77.55305,Dinwiddie,America/New_York
23842,37.13625,-77.22086,Disputanta,America/New_York
23843,36.84988,-77.8109,Dolphin,America/New_York
23844,36.67032,-77.3358,Drewryville,America/New_York
23845,36.57048,-77.99322,Ebony,America/New_York
23846,37.05947,-76.83224,Elberon,America/New_York
23847,36.668,-77.54972,Emporia,America/New_York
23850,37.16276,-77.7434,Ford,America/New_York
23851,36.6521,-76.95776,Franklin,America/New_York
23856,36.78735,-77.70291,Freeman,America/New_York
23857,36.58389,-77.88588,Gasburg,America/New_York
23860,37.28267,-77.22267,Hopewell,America/New_York
23866,36.92012,-76.86693,Ivor,America/New_York
23867,36.82063,-77.4878,Jarratt,America/New_York
23868,36.70991,-77.8038,Lawrenceville,America/New_York
23870,36.75241,-77.50016,Jarratt,America/New_York
23872,36.98351,-77.72629,McKenney,America/New_York
23874,36.60761,-77.09803,Newsoms,America/New_York
23875,37.22941,-77.25845,Prince George,America/New_York
23876,36.95635,-77.83343,Rawlings,America/New_York
23878,36.8291,-77.02065,Sedley,America/New_York
23879,36.59224,-77.59547,Skippers,America/New_York
23881,37.1917,-76.98588,Spring Grove,America/New_York
23882,36.92591,-77.41543,Stony Creek,America/New_York
23883,37.12546,-76.7502,Surry,America/New_York
23884,36.91733,-77.28011,Sussex,America/New_York
23885,37.18521,-77.57834,Sutherland,America/New_York
23887,36.56762,-77.81658,Valentines,America/New_York
23888,36.95383,-76.97802,Wakefield,America/New_York
23889,36.8972,-77.74395,Warfield,America/New_York
23890,37.00755,-77.11837,Waverly,America/New_York
23891,37.04752,-77.20367,Waverly,America/New_York
23893,36.6244,-77.93658,White Plains,America/New_York
23894,37.13867,-77.82404,Wilsons,America/New_York
23897,36.83399,-77.28234,Yale,America/New_York
23898,36.82737,-76.85662,Zuni,America/New_York
23899,37.23079,-76.96562,Claremont,America/New_York
23901,37.32309,-78.41186,Farmville,America/New_York
23909,37.29891,-78.39635,Farmville,America/New_York
23915,36.70668,-78.28627,Baskerville,America/New_York
23917,36.62378,-78.34144,Boydton,America/New_York
23919,36.59103,-78.13305,Bracey,America/New_York
23920,36.72452,-77.97266,Brodnax,America/New_York
23921,37.59143,-78.61413,Buckingham,America/New_York
23922,37.17987,-78.21219,Burkeville,America/New_York
23923,37.09316,-78.64627,Charlotte Court House,America/New_York
23924,36.80919,-78.43396,Chase City,America/New_York
23927,36.60899,-78.51258,Clarksville,America/New_York
23930,37.17468,-78.09608,Crewe,America/New_York
23934,37.17613,-78.62373,Cullen,America/New_York
23936,37.52494,-78.4819,Dillwyn,America/New_York
23937,36.94547,-78.52463,Drakes Branch,America/New_York
23938,36.90541,-78.00464,Dundas,America/New_York
23942,37.13241,-78.30138,Green Bay,America/New_York
23943,37.24181,-78.46041,Hampden Sydney,America/New_York
23944,36.9056,-78.13319,Kenbridge,America/New_York
23947,37.02265,-78.44284,Keysville,America/New_York
23950,36.66005,-78.07699,La Crosse,America/New_York
23952,36.91786,-78.27886,Lunenburg,America/New_York
23954,37.10893,-78.38705,Meherrin,America/New_York
23955,37.10816,-78.06556,Nottoway,America/New_York
23958,37.26848,-78.65581,Pamplin,America/New_York
23959,37.10472,-78.79654,Phenix,America/New_York
23960,37.31531,-78.5579,Prospect,America/New_York
23962,36.93865,-78.70399,Randolph,America/New_York
23963,37.195,-78.80168,Red House,America/New_York
23964,36.77713,-78.63149,Red Oak,America/New_York
23966,37.29177,-78.27418,Rice,America/New_York
23967,36.91813,-78.62857,Saxe,America/New_York
23968,36.72123,-78.51922,Skipwith,America/New_York
23970,36.74818,-78.18637,South Hill,America/New_York
23974,36.97323,-78.24549,Victoria,America/New_York
23976,36.8482,-78.5797,Wylliesburg,America/New_York
24011,37.27048,-79.94128,Roanoke,America/New_York
24012,37.31585,-79.89833,Roanoke,America/New_York
24013,37.26691,-79.92219,Roanoke,America/New_York
24014,37.22427,-79.91282,Roanoke,America/New_York
24015,37.25588,-79.97979,Roanoke,America/New_York
24016,37.27208,-79.95468,Roanoke,America/New_York
24017,37.29472,-79.99183,Roanoke,America/New_York
24018,37.21238,-80.04261,Roanoke,America/New_York
24019,37.3446,-79.95564,Roanoke,America/New_York
24020,37.35739,-79.94279,Roanoke,America/New_York
24022,37.27689,-79.93429,Roanoke,America/New_York
24053,36.60999,-80.53283,Ararat,America/New_York
24054,36.67806,-79.70396,Axton,America/New_York
24055,36.76333,-79.99741,Bassett,America/New_York
24058,37.18257,-80.61637,Belspring,America/New_York
24059,37.15577,-80.13159,Bent Mountain,America/New_York
24060,37.25772,-80.41961,Blacksburg,America/New_York
24061,37.22539,-80.42658,Blacksburg,America/New_York
24064,37.37237,-79.7759,Blue Ridge,America/New_York
24065,37.11814,-79.96453,Boones Mill,America/New_York
24066,37.5382,-79.67822,Buchanan,America/New_York
24067,37.03737,-80.06884,Callaway,America/New_York
24069,36.58376,-79.63779,Cascade,America/New_York
24070,37.37316,-80.21238,Catawba,America/New_York
24072,37.03809,-80.23113,Check,America/New_York
24073,37.13053,-80.4225,Christiansburg,America/New_York
24076,36.59704,-80.42116,Claudville,America/New_York
24077,37.36337,-79.90278,Cloverdale,America/New_York
24078,36.72376,-79.91303,Collinsville,America/New_York
24079,37.0539,-80.15418,Copper Hill,America/New_York
24082,36.62923,-80.13204,Critz,America/New_York
24083,37.40614,-79.92031,Daleville,America/New_York
24084,37.11468,-80.79088,Dublin,America/New_York
24085,37.67539,-79.83639,Eagle Rock,America/New_York
24086,37.27268,-80.63585,Eggleston,America/New_York
24087,37.22594,-80.24748,Elliston,America/New_York
24088,36.89492,-80.0798,Ferrum,America/New_York
24089,36.70392,-79.96078,Fieldale,America/New_York
24090,37.52633,-79.88921,Fincastle,America/New_York
24091,36.92131,-80.32264,Floyd,America/New_York
24092,37.00158,-79.76306,Glade Hill,America/New_York
24093,37.38784,-80.85657,Glen Lyn,America/New_York
24095,37.22304,-79.73787,Goodview,America/New_York
24101,37.17702,-79.80111,Hardy,America/New_York
24102,36.83994,-79.99891,Henry,America/New_York
24104,37.13546,-79.48773,Huddleston,America/New_York
24105,36.90278,-80.60127,Indian Valley,America/New_York
24112,36.72378,-79.84921,Martinsville,America/New_York
24120,36.71891,-80.41277,Meadows Of Dan,America/New_York
24121,37.1709,-79.64141,Moneta,America/New_York
24122,37.4212,-79.69372,Montvale,America/New_York
24124,37.30996,-80.86774,Narrows,America/New_York
24127,37.47949,-80.19468,New Castle,America/New_York
24128,37.3426,-80.47196,Newport,America/New_York
24129,37.13947,-80.5918,New River,America/New_York
24131,37.56836,-80.22894,Paint Bank,America/New_York
24132,37.20534,-80.64707,Parrott,America/New_York
24133,36.67563,-80.12794,Patrick Springs,America/New_York
24134,37.24595,-80.77901,Pearisburg,America/New_York
24136,37.31927,-80.60686,Pembroke,America/New_York
24137,36.92587,-79.65456,Penhook,America/New_York
24138,37.05052,-80.31684,Pilot,America/New_York
24139,37.01092,-79.4752,Pittsville,America/New_York
24141,37.10105,-80.56677,Radford,America/New_York
24142,37.13833,-80.55084,Radford,America/New_York
24147,37.40178,-80.82815,Rich Creek,America/New_York
24148,36.58156,-79.87231,Ridgeway,America/New_York
24149,37.02277,-80.43424,Riner,America/New_York
24150,37.40229,-80.59694,Ripplemead,America/New_York
24151,36.95827,-79.86457,Rocky Mount,America/New_York
24153,37.29674,-80.11609,Salem,America/New_York
24161,36.98132,-79.54391,Sandy Level,America/New_York
24162,37.13735,-80.25828,Shawsville,America/New_York
24165,36.58368,-80.05319,Spencer,America/New_York
24167,37.24718,-80.7345,Staffordsville,America/New_York
24168,36.73613,-79.94876,Stanleytown,America/New_York
24171,36.67095,-80.23835,Stuart,America/New_York
24174,37.35087,-79.66762,Thaxton,America/New_York
24175,37.42589,-79.93788,Troutville,America/New_York
24176,37.00937,-79.69193,Union Hall,America/New_York
24179,37.2855,-79.79963,Vinton,America/New_York
24184,37.0881,-79.77642,Wirtz,America/New_York
24185,36.80868,-80.27557,Woolwine,America/New_York
24201,36.61059,-82.16971,Bristol,America/New_York
24202,36.65904,-82.21564,Bristol,America/New_York
24210,36.77231,-82.02244,Abingdon,America/New_York
24211,36.65413,-81.95643,Abingdon,America/New_York
24216,36.94237,-82.79571,Appalachia,America/New_York
24217,37.1014,-82.17783,Bee,America/New_York
24219,36.84831,-82.74645,Big Stone Gap,America/New_York
24220,37.11957,-82.22641,Birchleaf,America/New_York
24221,36.63398,-82.9943,Blackwater,America/New_York
24224,36.86059,-82.28322,Castlewood,America/New_York
24225,36.97543,-82.14115,Cleveland,America/New_York
24226,37.14223,-82.33384,Clinchco,America/New_York
24228,37.17047,-82.44963,Clintwood,America/New_York
24230,36.96928,-82.45449,Coeburn,America/New_York
24236,36.64408,-81.73689,Damascus,America/New_York
24237,37.03939,-82.26424,Dante,America/New_York
24239,37.1136,-82.14577,Davenport,America/New_York
24243,36.78174,-82.92083,Dryden,America/New_York
24244,36.71075,-82.79785,Duffield,America/New_York
24245,36.84045,-82.51598,Dungannon,America/New_York
24246,36.86609,-82.74395,East Stone Gap,America/New_York
24248,36.62708,-83.50767,Ewing,America/New_York
24250,36.75752,-82.58705,Fort Blackmore,America/New_York
24251,36.65807,-82.60582,Gate City,America/New_York
24256,37.22344,-82.28503,Haysi,America/New_York
24258,36.6517,-82.41199,Hiltons,America/New_York
24260,37.02291,-82.00059,Honaker,America/New_York
24263,36.67164,-83.15079,Jonesville,America/New_York
24265,36.83811,-82.93904,Keokee,America/New_York
24266,36.8671,-82.10523,Lebanon,America/New_York
24269,37.0803,-82.37894,McClure,America/New_York
24270,36.72846,-82.24693,Mendota,America/New_York
24271,36.74712,-82.41714,Nickelsville,America/New_York
24272,37.0302,-82.33401,Nora,America/New_York
24273,36.96142,-82.65632,Norton,America/New_York
24277,36.74948,-83.03037,Pennington Gap,America/New_York
24279,37.10383,-82.61909,Pound,America/New_York
24280,36.95575,-81.94167,Rosedale,America/New_York
24281,36.65051,-83.3295,Rose Hill,America/New_York
24282,36.82159,-83.05533,Saint Charles,America/New_York
24283,36.94155,-82.34554,Saint Paul,America/New_York
24290,36.61186,-82.56688,Weber City,America/New_York
24292,36.6147,-81.5791,Whitetop,America/New_York
24293,37.00559,-82.56458,Wise,America/New_York
24301,37.06319,-80.79735,Pulaski,America/New_York
24311,36.87292,-81.40161,Atkins,America/New_York
24312,36.83117,-80.86897,Austinville,America/New_York
24313,36.9105,-80.79805,Barren Springs,America/New_York
24314,37.17166,-81.20728,Bastian,America/New_York
24315,37.1393,-81.0534,Bland,America/New_York
24316,36.95277,-81.67145,Broadford,America/New_York
24317,36.60138,-80.66876,Cana,America/New_York
24318,37.00047,-81.38658,Ceres,America/New_York
24319,36.76048,-81.65778,Chilhowie,America/New_York
24322,36.80534,-81.1195,Cripple Creek,America/New_York
24323,36.86513,-81.1997,Crockett,America/New_York
24324,36.97461,-80.78836,Draper,America/New_York
24325,36.80918,-80.60608,Dugspur,America/New_York
24326,36.72771,-81.19625,Elk Creek,America/New_York
24327,36.77357,-81.82971,Emory,America/New_York
24328,36.66185,-80.69382,Fancy Gap,America/New_York
24330,36.72375,-81.02471,Fries,America/New_York
24333,36.64057,-80.92921,Galax,America/New_York
24340,36.75267,-81.75891,Glade Spring,America/New_York
24343,36.76612,-80.70045,Hillsville,America/New_York
24347,36.95958,-80.65598,Hiwassee,America/New_York
24348,36.63897,-81.17392,Independence,America/New_York
24350,36.81109,-81.01757,Ivanhoe,America/New_York
24351,36.58081,-80.76591,Lambsburg,America/New_York
24352,36.71547,-80.53437,Laurel Fork,America/New_York
24354,36.82159,-81.54001,Marion,America/New_York
24360,36.93917,-80.9023,Max Meadows,America/New_York
24361,36.76672,-81.84552,Meadowview,America/New_York
24363,36.6137,-81.40084,Mouth Of Wilson,America/New_York
24366,37.26426,-81.10315,Rocky Gap,America/New_York
24368,36.89283,-81.30003,Rural Retreat,America/New_York
24370,36.91345,-81.69107,Saltville,America/New_York
24374,36.79129,-81.20178,Speedwell,America/New_York
24375,36.77128,-81.39026,Sugar Grove,America/New_York
24377,37.00206,-81.56961,Tannersville,America/New_York
24378,36.69126,-81.42944,Troutdale,America/New_York
24380,36.85672,-80.50183,Willis,America/New_York
24381,36.72453,-80.83924,Woodlawn,America/New_York
24382,36.95702,-81.10652,Wytheville,America/New_York
24401,38.13257,-79.08846,Staunton,America/New_York
24411,38.11784,-79.33052,Augusta Springs,America/New_York
24412,38.05774,-79.83096,Bacova,America/New_York
24413,38.50753,-79.55925,Blue Grass,America/New_York
24415,37.91099,-79.31126,Brownsburg,America/New_York
24416,37.72892,-79.35534,Buena Vista,America/New_York
24421,38.26389,-79.20019,Churchville,America/New_York
24422,37.83041,-79.75128,Clifton Forge,America/New_York
24426,37.76589,-80.06927,Covington,America/New_York
24430,38.076,-79.34181,Craigsville,America/New_York
24431,38.16897,-78.83924,Crimora,America/New_York
24432,38.17639,-79.43845,Deerfield,America/New_York
24433,38.41817,-79.46461,Doe Hill,America/New_York
24435,37.86716,-79.30663,Fairfield,America/New_York
24437,38.2116,-78.933,Fort Defiance,America/New_York
24439,38.01151,-79.47359,Goshen,America/New_York
24440,37.99595,-79.16574,Greenville,America/New_York
24441,38.22823,-78.8109,Grottoes,America/New_York
24442,38.35971,-79.39028,Head Waters,America/New_York
24445,37.96615,-79.88013,Hot Springs,America/New_York
24448,37.79836,-79.79002,Iron Gate,America/New_York
24450,37.77883,-79.53888,Lexington,America/New_York
24457,37.79379,-79.87014,Low Moor,America/New_York
24458,38.33066,-79.51201,McDowell,America/New_York
24459,38.02955,-79.28621,Middlebrook,America/New_York
24460,38.02237,-79.65048,Millboro,America/New_York
24464,37.86082,-79.10398,Montebello,America/New_York
24465,38.39611,-79.64636,Monterey,America/New_York
24467,38.2592,-78.97249,Mount Sidney,America/New_York
24469,38.20099,-78.90828,New Hope,America/New_York
24471,38.30837,-78.79645,Port Republic,America/New_York
24472,37.93833,-79.22194,Raphine,America/New_York
24473,37.9129,-79.41052,Rockbridge Baths,America/New_York
24474,37.80504,-79.84731,Selma,America/New_York
24476,37.97231,-79.22,Steeles Tavern,America/New_York
24477,38.00416,-79.04374,Stuarts Draft,America/New_York
24479,38.15353,-79.23992,Swoope,America/New_York
24482,38.20502,-78.99706,Verona,America/New_York
24483,37.81484,-79.2256,Vesuvius,America/New_York
24484,38.1448,-79.82013,Warm Springs,America/New_York
24485,38.27521,-79.33165,West Augusta,America/New_York
24486,38.29366,-78.92925,Weyers Cave,America/New_York
24487,38.20099,-79.58105,Williamsville,America/New_York
24501,37.35565,-79.15608,Lynchburg,America/New_York
24502,37.35624,-79.2194,Lynchburg,America/New_York
24503,37.45272,-79.24286,Lynchburg,America/New_York
24504,37.36673,-79.04953,Lynchburg,America/New_York
24515,37.35261,-79.17827,Lynchburg,America/New_York
24517,37.14532,-79.23258,Altavista,America/New_York
24520,36.58486,-79.03752,Alton,America/New_York
24521,37.63672,-79.09539,Amherst,America/New_York
24522,37.37324,-78.78591,Appomattox,America/New_York
24523,37.3364,-79.52347,Bedford,America/New_York
24526,37.55452,-79.40169,Big Island,America/New_York
24527,36.7324,-79.34577,Blairs,America/New_York
24528,37.07733,-78.8777,Brookneal,America/New_York
24529,36.62452,-78.64001,Buffalo Junction,America/New_York
24530,36.80785,-79.61044,Callands,America/New_York
24531,36.83922,-79.44332,Chatham,America/New_York
24534,36.87835,-78.76691,Clover,America/New_York
24536,37.48996,-79.32097,Coleman Falls,America/New_York
24538,37.32908,-78.95367,Concord,America/New_York
24539,36.85376,-78.90728,Crystal Hill,America/New_York
24540,36.64235,-79.42473,Danville,America/New_York
24541,36.59072,-79.51572,Danville,America/New_York
24549,36.71584,-79.50632,Dry Fork,America/New_York
24550,37.23493,-79.26898,Evington,America/New_York
24551,37.36655,-79.3268,Forest,America/New_York
24553,37.54845,-78.81907,Gladstone,America/New_York
24554,37.13674,-79.06639,Gladys,America/New_York
24555,37.6678,-79.47007,Glasgow,America/New_York
24556,37.38093,-79.4021,Goode,America/New_York
24557,36.9666,-79.30401,Gretna,America/New_York
24558,36.77914,-78.95741,Halifax,America/New_York
24562,37.70577,-78.62241,Howardsville,America/New_York
24563,37.06106,-79.27385,Hurt,America/New_York
24565,36.85259,-79.18588,Java,America/New_York
24566,36.72747,-79.25069,Keeling,America/New_York
24569,37.0463,-79.12129,Long Island,America/New_York
24570,37.3486,-79.4272,Lowry,America/New_York
24571,37.13671,-79.37983,Lynch Station,America/New_York
24572,37.46514,-79.09628,Madison Heights,America/New_York
24574,37.57589,-79.24714,Monroe,America/New_York
24577,36.93762,-78.97553,Nathalie,America/New_York
24578,37.66269,-79.55693,Natural Bridge,America/New_York
24579,37.58763,-79.50483,Natural Bridge Station,America/New_York
24580,36.58328,-78.68,Nelson,America/New_York
24581,37.65692,-78.8098,Norwood,America/New_York
24586,36.60776,-79.2828,Ringgold,America/New_York
24588,37.26408,-79.09997,Rustburg,America/New_York
24589,36.75528,-78.75555,Scottsburg,America/New_York
24590,37.79353,-78.47767,Scottsville,America/New_York
24592,36.67808,-78.95474,South Boston,America/New_York
24593,37.32651,-78.91342,Spout Spring,America/New_York
24594,36.64217,-79.18504,Sutherlin,America/New_York
24595,37.55904,-79.08421,Sweet Briar,America/New_York
24597,36.78553,-79.1095,Vernon Hill,America/New_York
24598,36.60521,-78.7828,Virgilina,America/New_York
24599,37.63289,-78.72452,Wingina,America/New_York
24601,37.19068,-81.64049,Amonate,America/New_York
24602,37.18383,-81.65762,Bandy,America/New_York
24603,37.35607,-82.1914,Big Rock,America/New_York
24604,37.21088,-81.54378,Bishop,America/New_York
24605,37.24093,-81.36123,Bluefield,America/New_York
24606,37.28814,-81.39183,Boissevain,America/New_York
24607,37.29498,-82.26533,Breaks,America/New_York
24609,37.02955,-81.795,Cedar Bluff,America/New_York
24612,37.09728,-81.84461,Doran,America/New_York
24613,37.262,-81.3385,Falls Mills,America/New_York
24614,37.31466,-82.07181,Grundy,America/New_York
24620,37.43335,-82.01932,Hurley,America/New_York
24622,37.22005,-81.79638,Jewell Ridge,America/New_York
24630,37.17292,-81.4782,North Tazewell,America/New_York
24631,37.2202,-81.99714,Oakwood,America/New_York
24634,37.27411,-81.90253,Pilgrims Knob,America/New_York
24635,37.30683,-81.34962,Pocahontas,America/New_York
24637,37.05258,-81.70981,Pounding Mill,America/New_York
24639,37.17357,-81.90461,Raven,America/New_York
24641,37.11797,-81.80802,Richlands,America/New_York
24646,37.13751,-82.02976,Rowe,America/New_York
24649,37.08303,-81.92198,Swords Creek,America/New_York
24651,37.07732,-81.50054,Tazewell,America/New_York
24656,37.1743,-82.12364,Vansant,America/New_York
24657,37.22363,-81.84737,Whitewood,America/New_York
24701,37.29929,-81.2065,Bluefield,America/New_York
24712,37.46903,-81.02029,Athens,America/New_York
24714,37.47627,-81.18352,Beeson,America/New_York
24715,37.33408,-81.32933,Bramwell,America/New_York
24716,37.53331,-81.37337,Bud,America/New_York
24719,37.48722,-81.32652,Covel,America/New_York
24724,37.33603,-81.31579,Freeman,America/New_York
24726,37.52084,-81.37229,Herndon,America/New_York
24729,37.44759,-81.24699,Hiawatha,America/New_York
24731,37.39733,-81.15162,Kegley,America/New_York
24733,37.44986,-81.20094,Lashmeet,America/New_York
24736,37.45045,-81.29589,Matoaka,America/New_York
24737,37.35042,-81.26055,Montcalm,America/New_York
24738,37.3032,-81.32013,Nemours,America/New_York
24739,37.36784,-80.9949,Princeton,America/New_York
24740,37.4042,-81.10205,Princeton,America/New_York
24747,37.40182,-81.2273,Rock,America/New_York
24801,37.46841,-81.55544,Welch,America/New_York
24808,37.33142,-81.41048,Anawalt,America/New_York
24811,37.40881,-81.75381,Avondale,America/New_York
24813,37.35954,-81.72489,Bartley,America/New_York
24815,37.22036,-81.63026,Berwind,America/New_York
24816,37.46139,-81.70516,Big Sandy,America/New_York
24817,37.34206,-81.81721,Bradshaw,America/New_York
24818,37.60809,-81.62275,Brenton,America/New_York
24822,37.62908,-81.68755,Clear Fork,America/New_York
24823,37.66761,-81.74105,Coal Mountain,America/New_York
24826,37.29212,-81.62411,Cucumber,America/New_York
24827,37.75186,-81.65997,Cyclone,America/New_York
24828,37.49975,-81.6553,Davy,America/New_York
24830,37.33399,-81.55799,Elbert,America/New_York
24831,37.38943,-81.44085,Elkhorn,America/New_York
24834,37.54313,-81.66093,Fanrock,America/New_York
24836,37.36846,-81.54908,Gary,America/New_York
24839,37.58216,-81.76504,Hanover,America/New_York
24843,37.48378,-81.70923,Hensley,America/New_York
24844,37.48554,-81.78703,Iaeger,America/New_York
24845,37.52643,-81.80041,Ikes Fork,America/New_York
24846,37.52611,-81.89175,Isaban,America/New_York
24847,37.57339,-81.41455,Itmann,America/New_York
24848,37.28206,-81.43413,Jenkinjones,America/New_York
24849,37.67435,-81.55848,Jesse,America/New_York
24850,37.37807,-81.88516,Jolo,America/New_York
24851,37.59922,-81.83805,Justice,America/New_York
24853,37.42924,-81.51686,Kimball,America/New_York
24854,37.73997,-81.5789,Kopperston,America/New_York
24855,37.40882,-81.42499,Kyle,America/New_York
24857,37.69591,-81.67557,Lynco,America/New_York
24860,37.65919,-81.59075,Matheny,America/New_York
24861,37.36182,-81.36525,Maybeury,America/New_York
24862,37.47905,-81.9489,Mohawk,America/New_York
24866,37.25216,-81.59925,Newhall,America/New_York
24867,37.60432,-81.45261,New Richmond,America/New_York
24868,37.42412,-81.40259,Northfork,America/New_York
24869,37.56133,-81.82315,North Spring,America/New_York
24870,37.73784,-81.53203,Oceana,America/New_York
24871,37.31693,-81.48552,Pageton,America/New_York
24872,37.44986,-81.8932,Panther,America/New_York
24873,37.35734,-81.87415,Paynesville,America/New_York
24874,37.60201,-81.53072,Pineville,America/New_York
24878,37.4321,-81.63086,Premier,America/New_York
24879,37.31639,-81.76725,Raysal,America/New_York
24880,37.64679,-81.53187,Rock View,America/New_York
24881,37.44435,-81.68785,Roderfield,America/New_York
24882,37.62771,-81.76623,Simon,America/New_York
24884,37.27943,-81.55048,Squire,America/New_York
24887,37.37808,-81.38664,Switchback,America/New_York
24888,37.36195,-81.48876,Thorpe,America/New_York
24892,37.31691,-81.69699,War,America/New_York
24894,37.25186,-81.69052,Warriormine,America/New_York
24895,37.37718,-81.58208,Wilcoe,America/New_York
24898,37.58752,-81.57504,Wyoming,America/New_York
24901,37.85298,-80.47598,Lewisburg,America/New_York
24910,37.74173,-80.66835,Alderson,America/New_York
24915,38.4693,-79.78668,Arbovale,America/New_York
24916,37.82735,-80.57735,Asbury,America/New_York
24918,37.51793,-80.75461,Ballard,America/New_York
24920,38.58918,-79.71723,Bartow,America/New_York
24924,38.19294,-80.15174,Buckeye,America/New_York
24925,37.72919,-80.38348,Caldwell,America/New_York
24927,38.38999,-79.965,Cass,America/New_York
24931,37.91471,-80.59355,Crawley,America/New_York
24934,38.32836,-79.89267,Dunmore,America/New_York
24935,37.56362,-80.80344,Forest Hill,America/New_York
24938,37.92516,-80.38083,Frankford,America/New_York
24941,37.58824,-80.3577,Gap Mills,America/New_York
24943,37.83632,-80.72709,Grassy Meadows,America/New_York
24944,38.39926,-79.77108,Green Bank,America/New_York
24945,37.54113,-80.68795,Greenville,America/New_York
24946,38.17891,-80.2671,Hillsboro,America/New_York
24951,37.48358,-80.63103,Lindside,America/New_York
24954,38.22932,-80.07436,Marlinton,America/New_York
24957,37.88729,-80.40827,Maxwelton,America/New_York
24962,37.66029,-80.72041,Pence Springs,America/New_York
24963,37.43743,-80.77617,Peterstown,America/New_York
24966,38.03345,-80.35283,Renick,America/New_York
24970,37.73238,-80.47574,Ronceverte,America/New_York
24974,37.65395,-80.44693,Secondcreekx,America/New_York
24976,37.66513,-80.52273,Sinks Grove,America/New_York
24977,37.90823,-80.67527,Smoot,America/New_York
24981,37.63256,-80.73968,Talcott,America/New_York
24983,37.59165,-80.51672,Union,America/New_York
24984,37.48942,-80.41749,Waiteville,America/New_York
24985,37.59989,-80.68948,Wayside,America/New_York
24986,37.91189,-80.19455,White Sulphur Springs,America/New_York
24991,38.00702,-80.48972,Williamsburg,America/New_York
24993,37.66095,-80.63512,Wolfcreek,America/New_York
25002,38.13087,-81.25466,Alloy,America/New_York
25003,38.25101,-81.77925,Alum Creek,America/New_York
25005,38.58201,-81.26982,Amma,America/New_York
25007,37.8252,-81.42766,Arnett,America/New_York
25008,37.95044,-81.35766,Artie,America/New_York
25009,38.19237,-81.71301,Ashford,America/New_York
25011,38.51169,-81.8363,Bancroft,America/New_York
25015,38.24293,-81.49226,Belle,America/New_York
25019,38.37663,-81.08955,Bickmore,America/New_York
25021,37.91587,-81.68482,Bim,America/New_York
25022,37.84157,-81.79241,Blair,America/New_York
25024,38.15744,-81.6266,Bloomingrose,America/New_York
25025,38.29378,-81.4018,Blount,America/New_York
25028,37.95598,-81.72535,Bob White,America/New_York
25030,38.45028,-81.22599,Bomont,America/New_York
25031,38.14615,-81.2801,Boomer,America/New_York
25033,38.61095,-81.92511,Buffalo,America/New_York
25035,38.16339,-81.52399,Cabin Creek,America/New_York
25036,38.19168,-81.26438,Cannelton,America/New_York
25039,38.24642,-81.36524,Cedar Grove,America/New_York
25040,38.13673,-81.24385,Charlton Heights,America/New_York
25043,38.44092,-80.98981,Clay,America/New_York
25044,37.91139,-81.32118,Clear Creek,America/New_York
25045,38.45603,-81.32474,Clendenin,America/New_York
25047,37.9219,-81.76027,Clothier,America/New_York
25048,37.95442,-81.44656,Colcord,America/New_York
25049,38.11954,-81.57315,Comfort,America/New_York
25051,38.15885,-81.70929,Costa,America/New_York
25053,38.04725,-81.87633,Danville,America/New_York
25054,38.12226,-81.45044,Dawes,America/New_York
25057,38.1078,-81.23783,Deep Water,America/New_York
25059,38.25422,-81.2153,Dixie,America/New_York
25060,37.97058,-81.47286,Dorothy,America/New_York
25061,38.1751,-81.43342,Drybranch,America/New_York
25062,37.87549,-81.44411,Dry Creek,America/New_York
25063,38.57761,-80.92572,Duck,America/New_York
25064,38.37631,-81.74764,Dunbar,America/New_York
25067,38.20963,-81.44018,East Bank,America/New_York
25070,38.54667,-81.93179,Eleanor,America/New_York
25071,38.47732,-81.46756,Elkview,America/New_York
25075,38.0526,-81.42915,Eskdale,America/New_York
25076,37.86889,-81.937,Ethel,America/New_York
25081,38.08235,-81.76875,Foster,America/New_York
25082,38.60861,-82.02879,Fraziers Bottom,America/New_York
25083,38.06809,-81.36118,Gallagher,America/New_York
25085,38.16762,-81.18867,Gauley Bridge,America/New_York
25086,38.21326,-81.41238,Glasgow,America/New_York
25088,38.37963,-81.21551,Glen,America/New_York
25090,38.15544,-81.21655,Glen Ferris,America/New_York
25093,37.9653,-81.64137,Gordon,America/New_York
25102,38.16735,-81.35192,Handley,America/New_York
25103,38.18207,-81.38225,Hansford,America/New_York
25106,38.77598,-82.08237,Henderson,America/New_York
25107,38.22427,-81.64493,Hernshaw,America/New_York
25108,37.9655,-81.87289,Hewett,America/New_York
25109,38.53097,-81.86062,Hometown,America/New_York
25110,38.21324,-81.3264,Hugheston,America/New_York
25111,38.34841,-81.12591,Indore,America/New_York
25112,38.38103,-81.76633,Institute,America/New_York
25113,38.55741,-81.03338,Ivydale,America/New_York
25114,37.98199,-81.7986,Jeffrey,America/New_York
25115,38.13065,-81.18997,Kanawha Falls,America/New_York
25118,38.11882,-81.32294,Kimberly,America/New_York
25119,38.03362,-81.27494,Kincaid,America/New_York
25121,37.91167,-81.87787,Lake,America/New_York
25123,38.73172,-81.90214,Leon,America/New_York
25124,38.62006,-81.76536,Liberty,America/New_York
25125,38.31554,-81.19074,Lizemores,America/New_York
25126,38.19058,-81.35382,London,America/New_York
25130,38.02776,-81.7455,Madison,America/New_York
25132,38.29328,-81.33441,Mammoth,America/New_York
25133,38.47976,-81.11831,Maysel,America/New_York
25134,38.13596,-81.48553,Miami,America/New_York
25136,38.15864,-81.31977,Montgomery,America/New_York
25139,38.11038,-81.2874,Mount Carbon,America/New_York
25140,37.86738,-81.49733,Naoma,America/New_York
25141,38.6305,-81.03592,Nebo,America/New_York
25142,38.15001,-81.73066,Nellis,America/New_York
25143,38.42001,-81.82414,Nitro,America/New_York
25148,38.03511,-81.53695,Orgas,America/New_York
25149,37.9558,-81.7745,Ottawa,America/New_York
25152,38.0411,-81.24004,Page,America/New_York
25154,38.11572,-81.70249,Peytona,America/New_York
25156,38.41181,-81.48217,Pinch,America/New_York
25159,38.50186,-81.7806,Poca,America/New_York
25160,38.29884,-81.27314,Pond Gap,America/New_York
25161,38.06123,-81.3189,Powellton,America/New_York
25162,38.20712,-81.38435,Pratt,America/New_York
25164,38.50406,-81.19373,Procious,America/New_York
25165,38.14907,-81.65308,Racine,America/New_York
25168,38.56394,-81.87733,Red House,America/New_York
25169,38.12788,-81.76288,Ridgeview,America/New_York
25173,38.07519,-81.21898,Robson,America/New_York
25174,37.86115,-81.41376,Rock Creek,America/New_York
25177,38.36928,-81.85021,Saint Albans,America/New_York
25180,37.78961,-81.43316,Saxon,America/New_York
25181,38.04962,-81.63476,Seth,America/New_York
25183,37.9074,-81.79745,Sharples,America/New_York
25185,38.22149,-81.23587,Mount Olive,America/New_York
25186,38.17113,-81.29811,Smithers,America/New_York
25187,38.72617,-82.01878,Southside,America/New_York
25193,38.01672,-81.55089,Sylvester,America/New_York
25201,38.3489,-81.48645,Tad,America/New_York
25202,38.31593,-81.85372,Tornado,America/New_York
25203,38.02125,-81.88162,Turtle Creek,America/New_York
25204,37.91546,-81.60914,Twilight,America/New_York
25205,38.01841,-81.78926,Uneeda,America/New_York
25206,37.9596,-81.69296,Van,America/New_York
25208,37.84579,-81.64282,Wharton,America/New_York
25209,37.96271,-81.52861,Whitesville,America/New_York
25211,38.46107,-80.87932,Widen,America/New_York
25213,38.50776,-81.91796,Winfield,America/New_York
25214,38.18947,-81.55127,Winifrede,America/New_York
25231,38.60464,-81.591,Advent,America/New_York
25234,38.81291,-81.12343,Arnoldsburg,America/New_York
25235,38.66939,-81.08874,Chloe,America/New_York
25239,38.84616,-81.83941,Cottageville,America/New_York
25241,38.78427,-81.80801,Evans,America/New_York
25243,38.67841,-81.48216,Gandeeville,America/New_York
25244,38.77068,-81.54237,Gay,America/New_York
25245,38.69916,-81.7393,Given,America/New_York
25247,39.001,-81.98987,Hartford,America/New_York
25248,38.64255,-81.61454,Kenna,America/New_York
25251,38.62119,-81.23173,Left Hand,America/New_York
25252,38.88345,-81.53679,Le Roy,America/New_York
25253,38.91947,-81.9669,Letart,America/New_York
25259,38.67465,-81.24836,Looneyville,America/New_York
25260,39.01653,-82.02465,Mason,America/New_York
25261,38.83027,-81.08886,Millstone,America/New_York
25262,38.90751,-81.83219,Millwood,America/New_York
25264,38.85547,-81.89516,Mount Alto,America/New_York
25265,38.98129,-81.97356,New Haven,America/New_York
25266,38.60224,-81.1589,Newton,America/New_York
25267,38.85778,-80.94187,Normantown,America/New_York
25268,38.73969,-81.107,Orma,America/New_York
25270,38.88174,-81.43395,Reedy,America/New_York
25271,38.78845,-81.68625,Ripley,America/New_York
25275,38.92451,-81.61687,Sandyville,America/New_York
25276,38.78803,-81.33203,Spencer,America/New_York
25285,38.54723,-81.1129,Wallback,America/New_York
25286,38.62098,-81.39728,Walton,America/New_York
25287,38.96158,-82.04834,West Columbia,America/New_York
25301,38.35123,-81.62761,Charleston,America/New_York
25302,38.39053,-81.59879,Charleston,America/New_York
25303,38.36033,-81.68679,South Charleston,America/New_York
25304,38.30521,-81.59044,Charleston,America/New_York
25305,38.33682,-81.61313,Charleston,America/New_York
25306,38.31071,-81.49087,Charleston,America/New_York
25309,38.31177,-81.75715,South Charleston,America/New_York
25311,38.36308,-81.55357,Charleston,America/New_York
25312,38.46156,-81.656,Charleston,America/New_York
25313,38.41547,-81.75704,Charleston,America/New_York
25314,38.29705,-81.65463,Charleston,America/New_York
25315,38.21032,-81.57992,Charleston,America/New_York
25320,38.54124,-81.62706,Charleston,America/New_York
25387,38.38523,-81.6642,Charleston,America/New_York
25401,39.45642,-77.97267,Martinsburg,America/New_York
25403,39.4842,-78.00725,Martinsburg,America/New_York
25404,39.48631,-77.89782,Martinsburg,America/New_York
25405,39.40892,-77.96235,Martinsburg,America/New_York
25411,39.55497,-78.22004,Berkeley Springs,America/New_York
25413,39.31632,-78.053,Bunker Hill,America/New_York
25414,39.25273,-77.87055,Charles Town,America/New_York
25419,39.58286,-77.88493,Falling Waters,America/New_York
25420,39.38095,-78.11969,Gerrardstown,America/New_York
25421,39.37821,-78.16384,Glengary,America/New_York
25422,39.55812,-78.35887,Great Cacapon,America/New_York
25425,39.27613,-77.79184,Harpers Ferry,America/New_York
25427,39.52608,-78.09098,Hedgesville,America/New_York
25428,39.37407,-78.02729,Inwood,America/New_York
25430,39.34024,-77.93899,Kearneysville,America/New_York
25431,39.48682,-78.57279,Levels,America/New_York
25432,39.29562,-77.78663,Millville,America/New_York
25434,39.45797,-78.45038,Paw Paw,America/New_York
25437,39.4225,-78.57623,Points,America/New_York
25438,39.31853,-77.86448,Ranson,America/New_York
25442,39.37157,-77.83181,Shenandoah Junction,America/New_York
25443,39.43835,-77.81477,Shepherdstown,America/New_York
25444,39.43543,-78.52081,Slanesville,America/New_York
25446,39.24013,-77.95705,Summit Point,America/New_York
25501,38.16035,-81.95582,Alkol,America/New_York
25502,38.66501,-82.11024,Apple Grove,America/New_York
25503,38.60835,-82.11666,Ashton,America/New_York
25504,38.37297,-82.26674,Barboursville,America/New_York
25505,38.01967,-82.03075,Big Creek,America/New_York
25506,38.20826,-82.18665,Branchland,America/New_York
25507,38.39945,-82.55193,Ceredo,America/New_York
25508,37.96388,-82.01394,Chapmanville,America/New_York
25510,38.38832,-82.06599,Culloden,America/New_York
25511,38.03194,-82.35637,Dunlow,America/New_York
25512,38.17784,-82.32056,East Lynn,America/New_York
25514,38.08136,-82.51678,Fort Gay,America/New_York
25515,38.75731,-82.15262,Gallipolis Ferry,America/New_York
25517,38.10989,-82.45368,Genoa,America/New_York
25520,38.55773,-82.17899,Glenwood,America/New_York
25521,38.22915,-81.98641,Griffithsville,America/New_York
25523,38.27934,-82.06754,Hamlin,America/New_York
25524,38.01309,-82.11712,Harts,America/New_York
25526,38.3984,-81.98279,Hurricane,America/New_York
25529,38.15573,-81.8245,Julian,America/New_York
25530,38.35629,-82.56337,Kenova,America/New_York
25534,38.08065,-82.27781,Kiahsville,America/New_York
25535,38.30772,-82.43405,Lavalette,America/New_York
25537,38.53399,-82.26926,Lesage,America/New_York
25540,38.15709,-82.13914,Midkiff,America/New_York
25541,38.45884,-82.12707,Milton,America/New_York
25544,38.23078,-82.11017,Myra,America/New_York
25545,38.45847,-82.22456,Ona,America/New_York
25547,37.92627,-81.9537,Pecks Mill,America/New_York
25550,38.86655,-82.0749,Point Pleasant,America/New_York
25555,38.23525,-82.55913,Prichard,America/New_York
25557,38.09923,-82.16262,Ranger,America/New_York
25559,38.32753,-82.23181,Salt Rock,America/New_York
25560,38.44736,-81.89908,Scott Depot,America/New_York
25564,38.26302,-81.88835,Sod,America/New_York
25565,38.10998,-81.96631,Spurlockville,America/New_York
25567,38.21971,-81.87294,Sumerco,America/New_York
25570,38.23508,-82.41927,Wayne,America/New_York
25571,38.2947,-82.15632,West Hamlin,America/New_York
25573,38.22725,-81.94549,Yawkey,America/New_York
25601,37.86255,-82.0026,Logan,America/New_York
25606,37.76641,-81.82878,Accoville,America/New_York
25607,37.78125,-81.77081,Amherstdale,America/New_York
25608,37.57512,-81.89165,Baisden,America/New_York
25611,37.6832,-81.87068,Bruno,America/New_York
25612,37.76396,-81.98064,Chauncey,America/New_York
25617,37.74549,-81.80275,Davin,America/New_York
25621,37.63149,-81.89643,Gilbert,America/New_York
25624,37.90393,-81.97162,Henlawson,America/New_York
25625,37.82237,-82.09206,Holden,America/New_York
25628,37.7657,-81.86237,Kistler,America/New_York
25630,37.79821,-81.6816,Lorado,America/New_York
25632,37.76292,-81.9368,Lyburn,America/New_York
25634,37.73017,-81.82461,Mallory,America/New_York
25635,37.71937,-81.87261,Man,America/New_York
25637,37.85086,-82.02805,Mount Gay,America/New_York
25638,37.74423,-82.05133,Omar,America/New_York
25639,37.88674,-81.95905,Peach Creek,America/New_York
25644,37.70191,-82.00107,Sarah Ann,America/New_York
25646,37.83187,-81.89349,Stollings,America/New_York
25647,37.786,-81.98738,Switzer,America/New_York
25649,37.87166,-82.08489,Verdunville,America/New_York
25650,37.68358,-81.78773,Verner,America/New_York
25651,37.57142,-81.9662,Wharncliffe,America/New_York
25652,37.78702,-82.04865,Whitman,America/New_York
25653,37.8287,-81.9944,Wilkinson,America/New_York
25654,37.80302,-81.87401,Yolyn,America/New_York
25661,37.71062,-82.25377,Williamson,America/New_York
25666,37.9203,-82.29432,Breeden,America/New_York
25667,37.70619,-82.2738,Chattaroy,America/New_York
25669,37.93186,-82.4519,Crum,America/New_York
25670,37.7385,-82.15588,Delbarton,America/New_York
25671,37.90411,-82.20283,Dingess,America/New_York
25672,37.57017,-82.10044,Edgarton,America/New_York
25674,37.87114,-82.34672,Kermit,America/New_York
25676,37.82509,-82.22972,Lenore,America/New_York
25678,37.59564,-82.08187,Matewan,America/New_York
25685,37.79592,-82.31426,Naugatuck,America/New_York
25688,37.63952,-82.15832,North Matewan,America/New_York
25690,37.69124,-82.15505,Ragland,America/New_York
25692,37.61804,-82.07375,Red Jacket,America/New_York
25696,37.66116,-82.07154,Varney,America/New_York
25699,37.96297,-82.31493,Wilsondale,America/New_York
25701,38.36809,-82.41127,Huntington,America/New_York
25702,38.43825,-82.33344,Huntington,America/New_York
25703,38.42201,-82.41827,Huntington,America/New_York
25704,38.34969,-82.50693,Huntington,America/New_York
25705,38.40636,-82.36276,Huntington,America/New_York
25755,38.42359,-82.42796,Huntington,America/New_York
25801,37.83805,-81.27017,Beckley,America/New_York
25810,37.58355,-81.34953,Allen Junction,America/New_York
25811,37.60835,-81.3065,Amigo,America/New_York
25812,38.14048,-81.11512,Ansted,America/New_York
25813,37.78309,-81.10001,Beaver,America/New_York
25817,37.76393,-81.42191,Bolt,America/New_York
25818,37.8608,-81.19252,Bradley,America/New_York
25820,37.50812,-81.13549,Camp Creek,America/New_York
25823,37.66626,-81.18231,Coal City,America/New_York
25825,37.64736,-81.08862,Cool Ridge,America/New_York
25826,37.57291,-81.36565,Corinne,America/New_York
25827,37.73869,-81.25368,Crab Orchard,America/New_York
25831,37.95645,-80.94037,Danese,America/New_York
25832,37.72637,-81.10494,Daniels,America/New_York
25836,37.78693,-81.27804,Eccles,America/New_York
25837,38.06041,-81.0383,Edmond,America/New_York
25839,37.78091,-81.38228,Fairdale,America/New_York
25840,38.04001,-81.11442,Fayetteville,America/New_York
25841,37.55325,-81.09061,Flat Top,America/New_York
25843,37.62129,-81.14129,Ghent,America/New_York
25844,37.81056,-81.37022,Glen Daniel,America/New_York
25845,37.70291,-81.51107,Glen Fork,America/New_York
25846,37.92476,-81.16628,Glen Jean,America/New_York
25848,37.71427,-81.43117,Glen Rogers,America/New_York
25849,37.73175,-81.27799,Glen White,America/New_York
25851,37.80177,-81.26154,Harper,America/New_York
25853,37.64616,-81.27827,Helen,America/New_York
25854,38.12629,-80.97537,Hico,America/New_York
25855,37.94052,-81.15296,Hilltop,America/New_York
25857,37.61443,-81.23288,Josephine,America/New_York
25862,38.08448,-81.05192,Lansing,America/New_York
25864,37.87948,-81.01781,Layland,America/New_York
25865,37.73076,-81.35212,Lester,America/New_York
25866,38.00883,-81.15738,Lochgelly,America/New_York
25868,38.07172,-80.96461,Lookout,America/New_York
25870,37.63931,-81.3813,Maben,America/New_York
25871,37.76917,-81.21165,Mabscott,America/New_York
25873,37.75136,-81.21515,MacArthur,America/New_York
25875,37.66907,-81.45956,McGraws,America/New_York
25876,37.63677,-81.44731,Saulsville,America/New_York
25878,37.71303,-81.22464,Midway,America/New_York
25879,37.98048,-81.10453,Minden,America/New_York
25880,37.87672,-81.20095,Mount Hope,America/New_York
25882,37.60359,-81.39892,Mullens,America/New_York
25901,37.93575,-81.11242,Oak Hill,America/New_York
25902,37.56301,-81.21115,Odd,America/New_York
25904,37.9128,-81.25213,Pax,America/New_York
25907,37.8593,-81.07196,Prince,America/New_York
25908,37.66782,-81.24434,Princewick,America/New_York
25909,37.83687,-81.20192,Prosperity,America/New_York
25911,37.75232,-81.17848,Raleigh,America/New_York
25913,37.70781,-81.47301,Ravencliff,America/New_York
25915,37.61575,-81.28691,Rhodell,America/New_York
25916,37.67818,-81.49019,Sabine,America/New_York
25917,37.97944,-81.25021,Scarbro,America/New_York
25918,37.74575,-81.00993,Shady Spring,America/New_York
25920,37.68646,-81.33661,Slab Fork,America/New_York
25921,37.69181,-81.25882,Sophia,America/New_York
25922,37.47147,-81.09966,Spanishburg,America/New_York
25928,37.55481,-81.34126,Stephenson,America/New_York
25932,37.75623,-81.30282,Surveyor,America/New_York
25936,37.92917,-81.03105,Thurmond,America/New_York
25938,38.15993,-81.03447,Victor,America/New_York
25942,38.02691,-80.98836,Winona,America/New_York
25943,37.59657,-81.34914,Wyco,America/New_York
25951,37.65535,-80.87197,Hinton,America/New_York
25958,38.02156,-80.76077,Charmco,America/New_York
25962,37.97044,-80.8098,Rainelle,America/New_York
25966,37.7975,-80.76729,Green Sulphur Springs,America/New_York
25969,37.61657,-81.00903,Jumping Branch,America/New_York
25971,37.48001,-80.97821,Lerona,America/New_York
25972,38.03576,-80.7222,Leslie,America/New_York
25976,37.84372,-80.86221,Meadow Bridge,America/New_York
25977,37.80819,-80.90571,Meadow Creek,America/New_York
25978,37.62861,-80.94138,Nimitz,America/New_York
25979,37.5126,-80.91736,Pipestem,America/New_York
25981,38.08321,-80.70274,Quinwood,America/New_York
25984,38.01409,-80.6026,Rupert,America/New_York
25985,37.75752,-80.83044,Sandstone,America/New_York
25986,37.89395,-80.81741,Spring Dale,America/New_York
25989,37.67864,-81.04594,White Oak,America/New_York
26003,40.0693,-80.6508,Wheeling,America/New_York
26030,40.21662,-80.65965,Beech Bottom,America/New_York
26031,40.00236,-80.71985,Benwood,America/New_York
26032,40.18646,-80.55024,Bethany,America/New_York
26033,39.8284,-80.57985,Cameron,America/New_York
26034,40.59404,-80.55258,Chester,America/New_York
26035,40.3482,-80.55522,Colliers,America/New_York
26036,39.98406,-80.54339,Dallas,America/New_York
26037,40.3344,-80.58494,Follansbee,America/New_York
26038,39.96329,-80.72595,Glen Dale,America/New_York
26039,39.81641,-80.66969,Glen Easton,America/New_York
26040,39.98389,-80.73104,Mcmechen,America/New_York
26041,39.89764,-80.7107,Moundsville,America/New_York
26047,40.53223,-80.5837,New Cumberland,America/New_York
26050,40.60108,-80.62646,Newell,America/New_York
26055,39.75338,-80.77396,Proctor,America/New_York
26056,40.5211,-80.57022,New Manchester,America/New_York
26058,40.18622,-80.66453,Short Creek,America/New_York
26059,40.07156,-80.59379,Triadelphia,America/New_York
26060,40.10465,-80.54649,Valley Grove,America/New_York
26062,40.42189,-80.56123,Weirton,America/New_York
26070,40.25008,-80.58037,Wellsburg,America/New_York
26074,40.16889,-80.59813,West Liberty,America/New_York
26075,40.19748,-80.64567,Windsor Heights,America/New_York
26101,39.23394,-81.57483,Parkersburg,America/New_York
26104,39.27413,-81.47779,Parkersburg,America/New_York
26105,39.32949,-81.52267,Vienna,America/New_York
26133,39.11973,-81.66968,Belleville,America/New_York
26134,39.37686,-81.27544,Belmont,America/New_York
26136,38.96553,-81.11478,Big Bend,America/New_York
26137,39.00647,-81.0385,Big Springs,America/New_York
26138,39.02114,-81.18155,Brohard,America/New_York
26141,38.92925,-81.26059,Creston,America/New_York
26142,39.21488,-81.45431,Davisville,America/New_York
26143,39.06338,-81.3764,Elizabeth,America/New_York
26146,39.45053,-81.03601,Friendly,America/New_York
26147,38.91368,-81.07629,Grantsville,America/New_York
26148,39.07122,-81.18088,Macfarlan,America/New_York
26149,39.47429,-80.88269,Middlebourne,America/New_York
26150,39.1566,-81.53697,Mineral Wells,America/New_York
